$GPGGA,162035.000,0658.4583,S,10737.8228,E,1,08,1.1,598.5,M,3.0,M,,0000*7B
$GPGLL,0658.4583,S,10737.8228,E,162035.000,A*29
$GPGSA,A,3,26,04,17,02,15,05,09,10,,,,,2.3,1.1,2.0*3C
$GPGSV,3,1,12,26,63,157,36,05,42,334,42,17,39,112,47,12,34,289,*74
$GPGSV,3,2,12,15,32,207,37,09,22,132,36,02,16,006,35,04,13,040,27*71
$GPGSV,3,3,12,23,13,047,,10,10,021,28,28,06,147,22,25,03,307,*7D
$GPRMC,162035.000,A,0658.4583,S,10737.8228,E,0.00,,150613,,*00
$GPVTG,,T,,M,0.00,N,0.0,K*7E
$GPGGA,162036.000,0658.4583,S,10737.8228,E,1,07,1.2,598.5,M,3.0,M,,0000*74
$GPGLL,0658.4583,S,10737.8228,E,162036.000,A*2A
$GPGSA,A,3,26,04,17,02,15,05,09,,,,,,2.4,1.2,2.1*38
$GPRMC,162036.000,A,0658.4583,S,10737.8228,E,0.00,,150613,,*03
$GPVTG,,T,,M,0.00,N,0.0,K*7E
$GPGGA,162037.000,0658.4583,S,10737.8228,E,1,07,1.2,598.5,M,3.0,M,,0000*75
$GPGLL,0658.4583,S,10737.8228,E,162037.000,A*2B
$GPGSA,A,3,26,04,17,02,15,05,09,,,,,,2.4,1.2,2.1*38
$GPRMC,162037.000,A,0658.4583,S,10737.8228,E,0.00,,150613,,*02
$GPVTG,,T,,M,0.00,N,0.0,K*7E
$GPGGA,162038.000,0658.4583,S,10737.8228,E,1,07,1.2,598.5,M,3.0,M,,0000*7A
$GPGLL,0658.4583,S,10737.8228,E,162038.000,A*24
$GPGSA,A,3,26,04,17,02,15,05,09,,,,,,2.4,1.2,2.1*38
$GPRMC,162038.000,A,0658.4583,S,10737.8228,E,0.00,,150613,,*0D
$GPVTG,,T,,M,0.00,N,0.0,K*7E
$GPGGA,162039.000,0658.4583,S,10737.8228,E,1,07,1.2,598.5,M,3.0,M,,0000*7B
$GPGLL,0658.4583,S,10737.8228,E,162039.000,A*25
$GPGSA,A,3,26,04,17,02,15,05,09,,,,,,2.4,1.2,2.1*38
$GPRMC,162039.000,A,0658.4583,S,10737.8228,E,0.00,,150613,,*0C
$GPVTG,,T,,M,0.00,N,0.0,K*7E
$GPGGA,162040.000,0658.4583,S,10737.8228,E,1,07,1.2,598.5,M,3.0,M,,0000*75
$GPGLL,0658.4583,S,10737.8228,E,162040.000,A*2B
$GPGSA,A,3,26,04,17,02,15,05,09,,,,,,2.4,1.2,2.1*38
$GPGSV,3,1,12,26,63,157,36,05,42,334,42,17,39,112,47,12,34,289,*74
$GPGSV,3,2,12,15,32,207,36,09,22,132,36,02,16,006,36,04,13,040,33*76
$GPGSV,3,3,12,23,13,047,,10,10,021,,28,06,147,23,25,03,307,*76
$GPRMC,162040.000,A,0658.4583,S,10737.8228,E,0.00,,150613,,*02
$GPVTG,,T,,M,0.00,N,0.0,K*7E
$GPGGA,162041.000,0658.4583,S,10737.8228,E,1,07,1.2,598.5,M,3.0,M,,0000*74
$GPGLL,0658.4583,S,10737.8228,E,162041.000,A*2A
$GPGSA,A,3,26,04,17,02,15,05,09,,,,,,2.4,1.2,2.1*38
$GPRMC,162041.000,A,0658.4583,S,10737.8228,E,0.00,,150613,,*03
$GPVTG,,T,,M,0.00,N,0.0,K*7E
$GPGGA,162042.000,0658.4583,S,10737.8228,E,1,07,1.2,598.5,M,3.0,M,,0000*77
$GPGLL,0658.4583,S,10737.8228,E,162042.000,A*29
$GPGSA,A,3,26,04,17,02,15,05,09,,,,,,2.4,1.2,2.1*38
$GPRMC,162042.000,A,0658.4583,S,10737.8228,E,0.00,,150613,,*00
$GPVTG,,T,,M,0.00,N,0.0,K*7E
$GPGGA,162043.000,0658.4583,S,10737.8228,E,1,07,1.2,598.5,M,3.0,M,,0000*76
$GPGLL,0658.4583,S,10737.8228,E,162043.000,A*28
$GPGSA,A,3,26,04,17,02,15,05,09,,,,,,2.4,1.2,2.1*38
$GPRMC,162043.000,A,0658.4583,S,10737.8228,E,0.00,,150613,,*01
$GPVTG,,T,,M,0.00,N,0.0,K*7E
$GPGGA,162044.000,0658.4583,S,10737.8228,E,1,07,1.2,598.5,M,3.0,M,,0000*71
$GPGLL,0658.4583,S,10737.8228,E,162044.000,A*2F
$GPGSA,A,3,26,04,17,02,15,05,09,,,,,,2.4,1.2,2.1*38
$GPRMC,162044.000,A,0658.4583,S,10737.8228,E,0.00,,150613,,*06
$GPVTG,,T,,M,0.00,N,0.0,K*7E
$GPGGA,162045.000,0658.4583,S,10737.8228,E,1,07,1.2,598.5,M,3.0,M,,0000*70
$GPGLL,0658.4583,S,10737.8228,E,162045.000,A*2E
$GPGSA,A,3,26,04,17,02,15,05,09,,,,,,2.4,1.2,2.1*38
$GPGSV,3,1,12,26,63,157,35,05,42,334,42,17,39,112,46,12,34,289,*76
$GPGSV,3,2,12,15,32,207,34,09,22,132,34,02,16,006,30,04,13,040,35*76
$GPGSV,3,3,12,23,13,047,,10,10,021,,28,06,147,23,25,03,307,*76
$GPRMC,162045.000,A,0658.4583,S,10737.8228,E,0.00,,150613,,*07
$GPVTG,,T,,M,0.00,N,0.0,K*7E
$GPGGA,162046.000,0658.4583,S,10737.8228,E,1,07,1.2,598.5,M,3.0,M,,0000*73
$GPGLL,0658.4583,S,10737.8228,E,162046.000,A*2D
$GPGSA,A,3,26,04,17,02,15,05,09,,,,,,2.4,1.2,2.1*38
$GPRMC,162046.000,A,0658.4583,S,10737.8228,E,0.00,,150613,,*04
$GPVTG,,T,,M,0.00,N,0.0,K*7E
$GPGGA,162047.000,0658.4583,S,10737.8228,E,1,08,1.1,598.5,M,3.0,M,,0000*7E
$GPGLL,0658.4583,S,10737.8228,E,162047.000,A*2C
$GPGSA,A,3,26,04,17,02,15,05,09,10,,,,,2.3,1.1,2.0*3C
$GPRMC,162047.000,A,0658.4583,S,10737.8228,E,0.00,,150613,,*05
$GPVTG,,T,,M,0.00,N,0.0,K*7E
$GPGGA,162048.000,0658.4583,S,10737.8228,E,1,08,1.1,598.5,M,3.0,M,,0000*71
$GPGLL,0658.4583,S,10737.8228,E,162048.000,A*23
$GPGSA,A,3,26,04,17,02,15,05,09,10,,,,,2.3,1.1,2.0*3C
$GPRMC,162048.000,A,0658.4583,S,10737.8228,E,0.00,,150613,,*0A
$GPVTG,,T,,M,0.00,N,0.0,K*7E
$GPGGA,162049.000,0658.4583,S,10737.8228,E,1,08,1.1,598.5,M,3.0,M,,0000*70
$GPGLL,0658.4583,S,10737.8228,E,162049.000,A*22
$GPGSA,A,3,26,04,17,02,15,05,09,10,,,,,2.3,1.1,2.0*3C
$GPRMC,162049.000,A,0658.4583,S,10737.8228,E,0.00,,150613,,*0B
$GPVTG,,T,,M,0.00,N,0.0,K*7E
$GPGGA,162050.000,0658.4583,S,10737.8228,E,1,08,1.1,598.5,M,3.0,M,,0000*78
$GPGLL,0658.4583,S,10737.8228,E,162050.000,A*2A
$GPGSA,A,3,26,04,17,02,15,05,09,10,,,,,2.3,1.1,2.0*3C
$GPGSV,3,1,12,26,63,157,38,05,42,334,42,17,39,113,41,12,34,288,*7C
$GPGSV,3,2,12,15,32,207,41,09,22,131,35,02,16,006,38,04,13,041,41*7C
$GPGSV,3,3,12,23,13,047,,10,10,021,33,28,05,147,19,25,04,306,*7A
$GPRMC,162050.000,A,0658.4583,S,10737.8228,E,0.00,,150613,,*03
$GPVTG,,T,,M,0.00,N,0.0,K*7E
$GPGGA,162051.000,0658.4583,S,10737.8228,E,1,08,1.1,598.5,M,3.0,M,,0000*79
$GPGLL,0658.4583,S,10737.8228,E,162051.000,A*2B
$GPGSA,A,3,26,04,17,02,15,05,09,10,,,,,2.3,1.1,2.0*3C
$GPRMC,162051.000,A,0658.4583,S,10737.8228,E,0.00,,150613,,*02
$GPVTG,,T,,M,0.00,N,0.0,K*7E
$GPGGA,162052.000,0658.4583,S,10737.8228,E,1,08,1.1,598.5,M,3.0,M,,0000*7A
$GPGLL,0658.4583,S,10737.8228,E,162052.000,A*28
$GPGSA,A,3,26,04,17,02,15,05,09,10,,,,,2.3,1.1,2.0*3C
$GPRMC,162052.000,A,0658.4583,S,10737.8228,E,0.00,,150613,,*01
$GPVTG,,T,,M,0.00,N,0.0,K*7E
$GPGGA,162053.000,0658.4583,S,10737.8228,E,1,08,1.1,598.5,M,3.0,M,,0000*7B
$GPGLL,0658.4583,S,10737.8228,E,162053.000,A*29
$GPGSA,A,3,26,04,17,02,15,05,09,10,,,,,2.3,1.1,2.0*3C
$GPRMC,162053.000,A,0658.4583,S,10737.8228,E,0.00,,150613,,*00
$GPVTG,,T,,M,0.00,N,0.0,K*7E
$GPGGA,162054.000,0658.4583,S,10737.8228,E,1,08,1.1,598.5,M,3.0,M,,0000*7C
$GPGLL,0658.4583,S,10737.8228,E,162054.000,A*2E
$GPGSA,A,3,26,04,17,02,15,05,09,10,,,,,2.3,1.1,2.0*3C
$GPRMC,162054.000,A,0658.4583,S,10737.8228,E,0.00,,150613,,*07
$GPVTG,,T,,M,0.00,N,0.0,K*7E
$GPGGA,162055.000,0658.4583,S,10737.8228,E,1,08,1.1,598.5,M,3.0,M,,0000*7D
$GPGLL,0658.4583,S,10737.8228,E,162055.000,A*2F
$GPGSA,A,3,26,04,17,02,15,05,09,10,,,,,2.3,1.1,2.0*3C
$GPGSV,3,1,12,26,63,157,38,05,42,334,41,17,39,113,40,12,34,288,*7E
$GPGSV,3,2,12,15,33,207,41,09,22,131,30,02,16,006,34,04,13,041,35*77
$GPGSV,3,3,12,23,13,047,,10,10,021,34,28,05,147,20,25,04,306,*77
$GPRMC,162055.000,A,0658.4583,S,10737.8228,E,0.00,,150613,,*06
$GPVTG,,T,,M,0.00,N,0.0,K*7E
$GPGGA,162056.000,0658.4583,S,10737.8228,E,1,08,1.1,598.5,M,3.0,M,,0000*7E
$GPGLL,0658.4583,S,10737.8228,E,162056.000,A*2C
$GPGSA,A,3,26,04,17,02,15,05,09,10,,,,,2.3,1.1,2.0*3C
$GPRMC,162056.000,A,0658.4583,S,10737.8228,E,0.00,,150613,,*05
$GPVTG,,T,,M,0.00,N,0.0,K*7E
$GPGGA,162057.000,0658.4583,S,10737.8228,E,1,08,1.1,598.5,M,3.0,M,,0000*7F
$GPGLL,0658.4583,S,10737.8228,E,162057.000,A*2D
$GPGSA,A,3,26,04,17,02,15,05,09,10,,,,,2.3,1.1,2.0*3C
$GPRMC,162057.000,A,0658.4583,S,10737.8228,E,0.00,,150613,,*04
$GPVTG,,T,,M,0.00,N,0.0,K*7E
$GPGGA,162058.000,0658.4583,S,10737.8228,E,1,08,1.1,598.5,M,3.0,M,,0000*70
$GPGLL,0658.4583,S,10737.8228,E,162058.000,A*22
$GPGSA,A,3,26,04,17,02,15,05,09,10,,,,,2.3,1.1,2.0*3C
$GPRMC,162058.000,A,0658.4583,S,10737.8228,E,0.00,,150613,,*0B
$GPVTG,,T,,M,0.00,N,0.0,K*7E
$GPGGA,162059.000,0658.4583,S,10737.8228,E,1,08,1.1,598.5,M,3.0,M,,0000*71
$GPGLL,0658.4583,S,10737.8228,E,162059.000,A*23
$GPGSA,A,3,26,04,17,02,15,05,09,10,,,,,2.3,1.1,2.0*3C
$GPRMC,162059.000,A,0658.4583,S,10737.8228,E,0.00,,150613,,*0A
$GPVTG,,T,,M,0.00,N,0.0,K*7E
$GPGGA,162100.000,0658.4583,S,10737.8228,E,1,08,1.1,598.5,M,3.0,M,,0000*7C
$GPGLL,0658.4583,S,10737.8228,E,162100.000,A*2E
$GPGSA,A,3,26,04,17,02,15,05,09,10,,,,,2.3,1.1,2.0*3C
$GPGSV,3,1,12,26,63,157,38,05,42,334,40,17,39,113,34,12,34,288,*7C
$GPGSV,3,2,12,15,33,207,41,09,22,131,33,02,16,006,26,04,13,041,32*70
$GPGSV,3,3,12,23,13,047,,10,10,021,35,28,05,147,21,25,04,306,*77
$GPRMC,162100.000,A,0658.4583,S,10737.8228,E,0.00,,150613,,*07
$GPVTG,,T,,M,0.00,N,0.0,K*7E
$GPGGA,162101.000,0658.4583,S,10737.8228,E,1,08,1.1,598.5,M,3.0,M,,0000*7D
$GPGLL,0658.4583,S,10737.8228,E,162101.000,A*2F
$GPGSA,A,3,26,04,17,02,15,05,09,10,,,,,2.3,1.1,2.0*3C
$GPRMC,162101.000,A,0658.4583,S,10737.8228,E,0.00,,150613,,*06
$GPVTG,,T,,M,0.00,N,0.0,K*7E
$GPGGA,162102.000,0658.4583,S,10737.8228,E,1,08,1.1,598.5,M,3.0,M,,0000*7E
$GPGLL,0658.4583,S,10737.8228,E,162102.000,A*2C
$GPGSA,A,3,26,04,17,02,15,05,09,10,,,,,2.3,1.1,2.0*3C
$GPRMC,162102.000,A,0658.4583,S,10737.8228,E,0.00,,150613,,*05
$GPVTG,,T,,M,0.00,N,0.0,K*7E
$GPGGA,162103.000,0658.4583,S,10737.8228,E,1,08,1.1,598.5,M,3.0,M,,0000*7F
$GPGLL,0658.4583,S,10737.8228,E,162103.000,A*2D
$GPGSA,A,3,26,04,17,02,15,05,09,10,,,,,2.3,1.1,2.0*3C
$GPRMC,162103.000,A,0658.4583,S,10737.8228,E,0.00,,150613,,*04
$GPVTG,,T,,M,0.00,N,0.0,K*7E
$GPGGA,162104.000,0658.4583,S,10737.8228,E,1,07,1.2,598.5,M,3.0,M,,0000*74
$GPGLL,0658.4583,S,10737.8228,E,162104.000,A*2A
$GPGSA,A,3,26,17,02,15,05,09,10,,,,,,2.4,1.2,2.0*3C
$GPRMC,162104.000,A,0658.4583,S,10737.8228,E,0.00,,150613,,*03
$GPVTG,,T,,M,0.00,N,0.0,K*7E
$GPGGA,162105.000,0658.4583,S,10737.8228,E,1,07,1.2,598.5,M,3.0,M,,0000*75
$GPGLL,0658.4583,S,10737.8228,E,162105.000,A*2B
$GPGSA,A,3,26,17,02,15,05,09,10,,,,,,2.4,1.2,2.0*3C
$GPGSV,3,1,12,26,63,157,45,05,42,334,40,17,39,113,37,12,34,288,*75
$GPGSV,3,2,12,15,33,207,39,09,22,131,32,02,16,006,35,04,13,041,*7D
$GPGSV,3,3,12,23,13,047,,10,10,021,36,28,05,147,21,25,04,306,*74
$GPRMC,162105.000,A,0658.4583,S,10737.8228,E,0.00,,150613,,*02
$GPVTG,,T,,M,0.00,N,0.0,K*7E
$GPGGA,162106.000,0658.4583,S,10737.8228,E,1,07,1.2,598.5,M,3.0,M,,0000*76
$GPGLL,0658.4583,S,10737.8228,E,162106.000,A*28
$GPGSA,A,3,26,17,02,15,05,09,10,,,,,,2.4,1.2,2.0*3C
$GPRMC,162106.000,A,0658.4583,S,10737.8228,E,0.00,,150613,,*01
$GPVTG,,T,,M,0.00,N,0.0,K*7E
$GPGGA,162107.000,0658.4583,S,10737.8228,E,1,07,1.2,598.5,M,3.0,M,,0000*77
$GPGLL,0658.4583,S,10737.8228,E,162107.000,A*29
$GPGSA,A,3,26,17,02,15,05,09,10,,,,,,2.4,1.2,2.0*3C
$GPRMC,162107.000,A,0658.4583,S,10737.8228,E,0.00,,150613,,*00
$GPVTG,,T,,M,0.00,N,0.0,K*7E
$GPGGA,162108.000,0658.4583,S,10737.8228,E,1,07,1.2,598.5,M,3.0,M,,0000*78
$GPGLL,0658.4583,S,10737.8228,E,162108.000,A*26
$GPGSA,A,3,26,17,02,15,05,09,10,,,,,,2.4,1.2,2.0*3C
$GPRMC,162108.000,A,0658.4583,S,10737.8228,E,0.00,,150613,,*0F
$GPVTG,,T,,M,0.00,N,0.0,K*7E
$GPGGA,162109.000,0658.4583,S,10737.8228,E,1,07,1.2,598.5,M,3.0,M,,0000*79
$GPGLL,0658.4583,S,10737.8228,E,162109.000,A*27
$GPGSA,A,3,26,17,02,15,05,09,10,,,,,,2.4,1.2,2.0*3C
$GPRMC,162109.000,A,0658.4583,S,10737.8228,E,0.00,,150613,,*0E
$GPVTG,,T,,M,0.00,N,0.0,K*7E
$GPGGA,162110.000,0658.4583,S,10737.8228,E,1,07,1.2,598.5,M,3.0,M,,0000*71
$GPGLL,0658.4583,S,10737.8228,E,162110.000,A*2F
$GPGSA,A,3,26,17,02,15,05,09,10,,,,,,2.4,1.2,2.0*3C
$GPGSV,3,1,12,26,63,157,42,05,42,334,40,17,39,113,38,12,34,288,23*7C
$GPGSV,3,2,12,15,33,207,33,09,22,131,26,02,16,006,29,04,13,041,*7F
$GPGSV,3,3,12,23,13,047,,10,10,021,31,28,05,147,21,25,04,306,*73
$GPRMC,162110.000,A,0658.4583,S,10737.8228,E,0.00,,150613,,*06
$GPVTG,,T,,M,0.00,N,0.0,K*7E
$GPGGA,162111.000,0658.4583,S,10737.8228,E,1,07,1.2,598.5,M,3.0,M,,0000*70
$GPGLL,0658.4583,S,10737.8228,E,162111.000,A*2E
$GPGSA,A,3,26,17,02,15,05,09,10,,,,,,2.4,1.2,2.0*3C
$GPRMC,162111.000,A,0658.4583,S,10737.8228,E,0.00,,150613,,*07
$GPVTG,,T,,M,0.00,N,0.0,K*7E
$GPGGA,162112.000,0658.4583,S,10737.8228,E,1,07,1.2,598.5,M,3.0,M,,0000*73
$GPGLL,0658.4583,S,10737.8228,E,162112.000,A*2D
$GPGSA,A,3,26,17,02,15,05,09,10,,,,,,2.4,1.2,2.0*3C
$GPRMC,162112.000,A,0658.4583,S,10737.8228,E,0.00,,150613,,*04
$GPVTG,,T,,M,0.00,N,0.0,K*7E
$GPGGA,162113.000,0658.4583,S,10737.8228,E,1,07,1.2,598.5,M,3.0,M,,0000*72
$GPGLL,0658.4583,S,10737.8228,E,162113.000,A*2C
$GPGSA,A,3,26,17,02,15,05,09,10,,,,,,2.4,1.2,2.0*3C
$GPRMC,162113.000,A,0658.4583,S,10737.8228,E,0.00,,150613,,*05
$GPVTG,,T,,M,0.00,N,0.0,K*7E
$GPGGA,162114.000,0658.4583,S,10737.8228,E,1,06,1.2,598.5,M,3.0,M,,0000*74
$GPGLL,0658.4583,S,10737.8228,E,162114.000,A*2B
$GPGSA,A,3,26,17,15,05,09,10,,,,,,,2.4,1.2,2.1*3F
$GPRMC,162114.000,A,0658.4583,S,10737.8228,E,0.00,,150613,,*02
$GPVTG,,T,,M,0.00,N,0.0,K*7E
$GPGGA,162115.000,0658.4583,S,10737.8228,E,1,05,1.4,598.5,M,3.0,M,,0000*70
$GPGLL,0658.4583,S,10737.8228,E,162115.000,A*2A
$GPGSA,A,3,26,17,15,05,09,,,,,,,,3.2,1.4,2.8*36
$GPGSV,3,1,12,26,63,157,44,05,42,334,42,17,39,113,38,12,34,288,22*79
$GPGSV,3,2,12,15,33,207,35,09,22,131,39,02,16,006,,04,13,041,*7C
$GPGSV,3,3,12,23,13,047,,10,10,021,,28,05,147,21,25,04,306,*71
$GPRMC,162115.000,A,0658.4583,S,10737.8228,E,0.00,,150613,,*03
$GPVTG,,T,,M,0.00,N,0.0,K*7E
$GPGGA,162116.000,0658.4583,S,10737.8228,E,1,07,1.2,598.5,M,3.0,M,,0000*77
$GPGLL,0658.4583,S,10737.8228,E,162116.000,A*29
$GPGSA,A,3,26,17,04,15,05,09,02,,,,,,2.4,1.2,2.1*38
$GPRMC,162116.000,A,0658.4583,S,10737.8228,E,0.00,,150613,,*00
$GPVTG,,T,,M,0.00,N,0.0,K*7E
$GPGGA,162117.000,0658.4583,S,10737.8228,E,1,07,1.2,598.5,M,3.0,M,,0000*76
$GPGLL,0658.4583,S,10737.8228,E,162117.000,A*28
$GPGSA,A,3,26,17,04,15,05,09,02,,,,,,2.4,1.2,2.1*38
$GPRMC,162117.000,A,0658.4583,S,10737.8228,E,0.00,,150613,,*01
$GPVTG,,T,,M,0.00,N,0.0,K*7E
$GPGGA,162118.000,0658.4583,S,10737.8228,E,1,07,1.2,598.5,M,3.0,M,,0000*79
$GPGLL,0658.4583,S,10737.8228,E,162118.000,A*27
$GPGSA,A,3,26,17,04,15,05,09,02,,,,,,2.4,1.2,2.1*38
$GPRMC,162118.000,A,0658.4583,S,10737.8228,E,0.00,,150613,,*0E
$GPVTG,,T,,M,0.00,N,0.0,K*7E
$GPGGA,162119.000,0658.4583,S,10737.8228,E,1,07,1.2,598.5,M,3.0,M,,0000*78
$GPGLL,0658.4583,S,10737.8228,E,162119.000,A*26
$GPGSA,A,3,26,17,04,15,05,09,02,,,,,,2.4,1.2,2.1*38
$GPRMC,162119.000,A,0658.4583,S,10737.8228,E,0.00,,150613,,*0F
$GPVTG,,T,,M,0.00,N,0.0,K*7E
$GPGGA,162120.000,0658.4583,S,10737.8228,E,1,07,1.2,598.5,M,3.0,M,,0000*72
$GPGLL,0658.4583,S,10737.8228,E,162120.000,A*2C
$GPGSA,A,3,26,17,04,15,05,09,02,,,,,,2.4,1.2,2.1*38
$GPGSV,3,1,12,26,63,157,44,05,41,334,41,17,39,113,36,12,34,288,22*77
$GPGSV,3,2,12,15,33,207,37,09,22,131,31,02,17,006,31,04,13,041,31*77
$GPGSV,3,3,12,23,13,047,,10,10,021,,28,05,147,20,25,04,306,*70
$GPRMC,162120.000,A,0658.4583,S,10737.8228,E,0.00,,150613,,*05
$GPVTG,,T,,M,0.00,N,0.0,K*7E
$GPGGA,162121.000,0658.4583,S,10737.8228,E,1,07,1.2,598.5,M,3.0,M,,0000*73
$GPGLL,0658.4583,S,10737.8228,E,162121.000,A*2D
$GPGSA,A,3,26,17,04,15,05,09,02,,,,,,2.4,1.2,2.1*38
$GPRMC,162121.000,A,0658.4583,S,10737.8228,E,0.00,,150613,,*04
$GPVTG,,T,,M,0.00,N,0.0,K*7E
$GPGGA,162122.000,0658.4583,S,10737.8228,E,1,07,1.2,598.5,M,3.0,M,,0000*70
$GPGLL,0658.4583,S,10737.8228,E,162122.000,A*2E
$GPGSA,A,3,26,17,04,15,05,09,02,,,,,,2.4,1.2,2.1*38
$GPRMC,162122.000,A,0658.4583,S,10737.8228,E,0.00,,150613,,*07
$GPVTG,,T,,M,0.00,N,0.0,K*7E
$GPGGA,162123.000,0658.4583,S,10737.8228,E,1,07,1.2,598.5,M,3.0,M,,0000*71
$GPGLL,0658.4583,S,10737.8228,E,162123.000,A*2F
$GPGSA,A,3,26,17,04,15,05,09,02,,,,,,2.4,1.2,2.1*38
$GPRMC,162123.000,A,0658.4583,S,10737.8228,E,0.00,,150613,,*06
$GPVTG,,T,,M,0.00,N,0.0,K*7E
$GPGGA,162124.000,0658.4583,S,10737.8228,E,1,07,1.2,598.5,M,3.0,M,,0000*76
$GPGLL,0658.4583,S,10737.8228,E,162124.000,A*28
$GPGSA,A,3,26,17,04,15,05,09,02,,,,,,2.4,1.2,2.1*38
$GPRMC,162124.000,A,0658.4583,S,10737.8228,E,0.00,,150613,,*01
$GPVTG,,T,,M,0.00,N,0.0,K*7E
$GPGGA,162125.000,0658.4583,S,10737.8228,E,1,06,1.3,598.5,M,3.0,M,,0000*77
$GPGLL,0658.4583,S,10737.8228,E,162125.000,A*29
$GPGSA,A,3,26,17,04,15,05,02,,,,,,,2.7,1.3,2.4*36
$GPGSV,3,1,12,26,63,157,45,05,41,334,42,17,39,113,37,12,34,288,21*77
$GPGSV,3,2,12,15,33,207,41,09,22,131,,02,17,006,32,04,13,041,31*77
$GPGSV,3,3,12,23,13,047,,10,10,021,,28,05,147,19,25,04,306,*7A
$GPRMC,162125.000,A,0658.4583,S,10737.8228,E,0.00,,150613,,*00
$GPVTG,,T,,M,0.00,N,0.0,K*7E
$GPGGA,162126.000,0658.4583,S,10737.8228,E,1,06,1.3,598.5,M,3.0,M,,0000*74
$GPGLL,0658.4583,S,10737.8228,E,162126.000,A*2A
$GPGSA,A,3,26,17,04,15,05,02,,,,,,,2.7,1.3,2.4*36
$GPRMC,162126.000,A,0658.4583,S,10737.8228,E,0.00,,150613,,*03
$GPVTG,,T,,M,0.00,N,0.0,K*7E
$GPGGA,162127.000,0658.4583,S,10737.8228,E,1,06,1.3,598.5,M,3.0,M,,0000*75
$GPGLL,0658.4583,S,10737.8228,E,162127.000,A*2B
$GPGSA,A,3,26,17,04,15,05,02,,,,,,,2.7,1.3,2.4*36
$GPRMC,162127.000,A,0658.4583,S,10737.8228,E,0.00,,150613,,*02
$GPVTG,,T,,M,0.00,N,0.0,K*7E
$GPGGA,162128.000,0658.4583,S,10737.8228,E,1,06,1.3,598.5,M,3.0,M,,0000*7A
$GPGLL,0658.4583,S,10737.8228,E,162128.000,A*24
$GPGSA,A,3,26,17,04,15,05,02,,,,,,,2.7,1.3,2.4*36
$GPRMC,162128.000,A,0658.4583,S,10737.8228,E,0.00,,150613,,*0D
$GPVTG,,T,,M,0.00,N,0.0,K*7E
$GPGGA,162129.000,0658.4583,S,10737.8228,E,1,07,1.2,598.5,M,3.0,M,,0000*7B
$GPGLL,0658.4583,S,10737.8228,E,162129.000,A*25
$GPGSA,A,3,26,17,04,15,05,09,02,,,,,,2.4,1.2,2.1*38
$GPRMC,162129.000,A,0658.4583,S,10737.8228,E,0.00,,150613,,*0C
$GPVTG,,T,,M,0.00,N,0.0,K*7E
$GPGGA,162130.000,0658.4583,S,10737.8228,E,1,07,1.2,598.5,M,3.0,M,,0000*73
$GPGLL,0658.4583,S,10737.8228,E,162130.000,A*2D
$GPGSA,A,3,26,17,04,15,05,09,02,,,,,,2.4,1.2,2.1*38
$GPGSV,3,1,12,26,63,157,37,05,41,334,43,17,39,113,40,12,34,288,22*70
$GPGSV,3,2,12,15,33,207,37,09,22,131,30,02,17,006,38,04,13,041,30*7E
$GPGSV,3,3,12,23,13,047,,10,10,021,,28,05,147,18,25,04,306,*7B
$GPRMC,162130.000,A,0658.4583,S,10737.8228,E,0.00,,150613,,*04
$GPVTG,,T,,M,0.00,N,0.0,K*7E
$GPGGA,162131.000,0658.4583,S,10737.8228,E,1,07,1.2,598.5,M,3.0,M,,0000*72
$GPGLL,0658.4583,S,10737.8228,E,162131.000,A*2C
$GPGSA,A,3,26,17,04,15,05,09,02,,,,,,2.4,1.2,2.1*38
$GPRMC,162131.000,A,0658.4583,S,10737.8228,E,0.00,,150613,,*05
$GPVTG,,T,,M,0.00,N,0.0,K*7E
$GPGGA,162132.000,0658.4583,S,10737.8228,E,1,07,1.2,598.5,M,3.0,M,,0000*71
$GPGLL,0658.4583,S,10737.8228,E,162132.000,A*2F
$GPGSA,A,3,26,17,04,15,05,09,02,,,,,,2.4,1.2,2.1*38
$GPRMC,162132.000,A,0658.4583,S,10737.8228,E,0.00,,150613,,*06
$GPVTG,,T,,M,0.00,N,0.0,K*7E
$GPGGA,162133.000,0658.4583,S,10737.8228,E,1,08,1.2,598.5,M,3.0,M,,0000*7F
$GPGLL,0658.4583,S,10737.8228,E,162133.000,A*2E
$GPGSA,A,3,26,17,04,10,15,05,09,02,,,,,2.3,1.2,2.0*3F
$GPRMC,162133.000,A,0658.4583,S,10737.8228,E,0.00,,150613,,*07
$GPVTG,,T,,M,0.00,N,0.0,K*7E
$GPGGA,162134.000,0658.4583,S,10737.8228,E,1,08,1.2,598.5,M,3.0,M,,0000*78
$GPGLL,0658.4583,S,10737.8228,E,162134.000,A*29
$GPGSA,A,3,26,17,04,10,15,05,09,02,,,,,2.3,1.2,2.0*3F
$GPRMC,162134.000,A,0658.4583,S,10737.8228,E,0.00,,150613,,*00
$GPVTG,,T,,M,0.00,N,0.0,K*7E
$GPGGA,162135.000,0658.4583,S,10737.8228,E,1,08,1.2,598.5,M,3.0,M,,0000*79
$GPGLL,0658.4583,S,10737.8228,E,162135.000,A*28
$GPGSA,A,3,26,17,04,10,15,05,09,02,,,,,2.3,1.2,2.0*3F
$GPGSV,3,1,12,26,63,157,43,05,41,334,25,17,39,113,42,12,34,288,22*71
$GPGSV,3,2,12,15,33,207,36,09,22,131,33,02,17,006,32,04,13,041,30*76
$GPGSV,3,3,12,23,13,047,,10,10,021,29,28,05,147,,25,04,306,*79
$GPRMC,162135.000,A,0658.4583,S,10737.8228,E,0.00,,150613,,*01
$GPVTG,,T,,M,0.00,N,0.0,K*7E
$GPGGA,162136.000,0658.4583,S,10737.8228,E,1,08,1.2,598.5,M,3.0,M,,0000*7A
$GPGLL,0658.4583,S,10737.8228,E,162136.000,A*2B
$GPGSA,A,3,26,17,04,10,15,05,09,02,,,,,2.3,1.2,2.0*3F
$GPRMC,162136.000,A,0658.4583,S,10737.8228,E,0.00,,150613,,*02
$GPVTG,,T,,M,0.00,N,0.0,K*7E
$GPGGA,162137.000,0658.4583,S,10737.8228,E,1,08,1.2,598.5,M,3.0,M,,0000*7B
$GPGLL,0658.4583,S,10737.8228,E,162137.000,A*2A
$GPGSA,A,3,26,17,04,10,15,05,09,02,,,,,2.3,1.2,2.0*3F
$GPRMC,162137.000,A,0658.4583,S,10737.8228,E,0.00,,150613,,*03
$GPVTG,,T,,M,0.00,N,0.0,K*7E
$GPGGA,162138.000,0658.4583,S,10737.8228,E,1,08,1.2,598.5,M,3.0,M,,0000*74
$GPGLL,0658.4583,S,10737.8228,E,162138.000,A*25
$GPGSA,A,3,26,17,04,10,15,05,09,02,,,,,2.3,1.2,2.0*3F
$GPRMC,162138.000,A,0658.4583,S,10737.8228,E,0.00,,150613,,*0C
$GPVTG,,T,,M,0.00,N,0.0,K*7E
$GPGGA,162139.000,0658.4583,S,10737.8228,E,1,08,1.2,598.5,M,3.0,M,,0000*75
$GPGLL,0658.4583,S,10737.8228,E,162139.000,A*24
$GPGSA,A,3,26,17,04,10,15,05,09,02,,,,,2.3,1.2,2.0*3F
$GPRMC,162139.000,A,0658.4583,S,10737.8228,E,0.00,,150613,,*0D
$GPVTG,,T,,M,0.00,N,0.0,K*7E
$GPGGA,162140.000,0658.4583,S,10737.8228,E,1,08,1.2,598.5,M,3.0,M,,0000*7B
$GPGLL,0658.4583,S,10737.8228,E,162140.000,A*2A
$GPGSA,A,3,26,17,04,10,15,05,09,02,,,,,2.3,1.2,2.0*3F
$GPGSV,3,1,12,26,63,157,42,05,41,334,25,17,39,113,39,12,34,288,21*7F
$GPGSV,3,2,12,15,33,207,39,09,22,131,35,02,17,006,36,04,13,041,33*78
$GPGSV,3,3,12,23,13,047,,10,10,021,28,28,05,147,,25,04,306,*78
$GPRMC,162140.000,A,0658.4583,S,10737.8228,E,0.00,,150613,,*03
$GPVTG,,T,,M,0.00,N,0.0,K*7E
$GPGGA,162141.000,0658.4583,S,10737.8228,E,1,08,1.2,598.5,M,3.0,M,,0000*7A
$GPGLL,0658.4583,S,10737.8228,E,162141.000,A*2B
$GPGSA,A,3,26,17,04,10,15,05,09,02,,,,,2.3,1.2,2.0*3F
$GPRMC,162141.000,A,0658.4583,S,10737.8228,E,0.00,,150613,,*02
$GPVTG,,T,,M,0.00,N,0.0,K*7E
$GPGGA,162142.000,0658.4583,S,10737.8228,E,1,08,1.2,598.5,M,3.0,M,,0000*79
$GPGLL,0658.4583,S,10737.8228,E,162142.000,A*28
$GPGSA,A,3,26,17,04,10,15,05,09,02,,,,,2.3,1.2,2.0*3F
$GPRMC,162142.000,A,0658.4583,S,10737.8228,E,0.00,,150613,,*01
$GPVTG,,T,,M,0.00,N,0.0,K*7E
$GPGGA,162143.000,0658.4583,S,10737.8228,E,1,08,1.2,598.5,M,3.0,M,,0000*78
$GPGLL,0658.4583,S,10737.8228,E,162143.000,A*29
$GPGSA,A,3,26,17,04,10,15,05,09,02,,,,,2.3,1.2,2.0*3F
$GPRMC,162143.000,A,0658.4583,S,10737.8228,E,0.00,,150613,,*00
$GPVTG,,T,,M,0.00,N,0.0,K*7E
$GPGGA,162144.000,0658.4583,S,10737.8228,E,1,08,1.2,598.5,M,3.0,M,,0000*7F
$GPGLL,0658.4583,S,10737.8228,E,162144.000,A*2E
$GPGSA,A,3,26,17,04,10,15,05,09,02,,,,,2.3,1.2,2.0*3F
$GPRMC,162144.000,A,0658.4583,S,10737.8228,E,0.00,,150613,,*07
$GPVTG,,T,,M,0.00,N,0.0,K*7E
$GPGGA,162145.000,0658.4583,S,10737.8228,E,1,08,1.2,598.5,M,3.0,M,,0000*7E
$GPGLL,0658.4583,S,10737.8228,E,162145.000,A*2F
$GPGSA,A,3,26,17,04,10,15,05,09,02,,,,,2.3,1.2,2.0*3F
$GPGSV,3,1,12,26,63,157,37,05,41,334,24,17,39,113,41,12,34,288,20*72
$GPGSV,3,2,12,15,33,207,28,09,22,131,24,02,17,006,29,04,13,041,34*71
$GPGSV,3,3,12,23,13,047,,10,10,021,29,28,05,147,,25,04,306,*79
$GPRMC,162145.000,A,0658.4583,S,10737.8228,E,0.00,,150613,,*06
$GPVTG,,T,,M,0.00,N,0.0,K*7E
$GPGGA,162146.000,0658.4583,S,10737.8228,E,1,08,1.2,598.5,M,3.0,M,,0000*7D
$GPGLL,0658.4583,S,10737.8228,E,162146.000,A*2C
$GPGSA,A,3,26,17,04,10,15,05,09,02,,,,,2.3,1.2,2.0*3F
$GPRMC,162146.000,A,0658.4583,S,10737.8228,E,0.00,,150613,,*05
$GPVTG,,T,,M,0.00,N,0.0,K*7E
$GPGGA,162147.000,0658.4583,S,10737.8228,E,1,08,1.2,598.5,M,3.0,M,,0000*7C
$GPGLL,0658.4583,S,10737.8228,E,162147.000,A*2D
$GPGSA,A,3,26,17,04,10,15,05,09,02,,,,,2.3,1.2,2.0*3F
$GPRMC,162147.000,A,0658.4583,S,10737.8228,E,0.00,,150613,,*04
$GPVTG,,T,,M,0.00,N,0.0,K*7E
$GPGGA,162148.000,0658.4583,S,10737.8228,E,1,08,1.2,598.5,M,3.0,M,,0000*73
$GPGLL,0658.4583,S,10737.8228,E,162148.000,A*22
$GPGSA,A,3,26,17,04,10,15,05,09,02,,,,,2.3,1.2,2.0*3F
$GPRMC,162148.000,A,0658.4583,S,10737.8228,E,0.00,,150613,,*0B
$GPVTG,,T,,M,0.00,N,0.0,K*7E
$GPGGA,162149.000,0658.4583,S,10737.8228,E,1,08,1.2,598.5,M,3.0,M,,0000*72
$GPGLL,0658.4583,S,10737.8228,E,162149.000,A*23
$GPGSA,A,3,26,17,04,10,15,05,09,02,,,,,2.3,1.2,2.0*3F
$GPRMC,162149.000,A,0658.4583,S,10737.8228,E,0.00,,150613,,*0A
$GPVTG,,T,,M,0.00,N,0.0,K*7E
$GPGGA,162150.000,0658.4583,S,10737.8228,E,1,08,1.2,598.5,M,3.0,M,,0000*7A
$GPGLL,0658.4583,S,10737.8228,E,162150.000,A*2B
$GPGSA,A,3,26,17,04,10,15,05,09,02,,,,,2.3,1.2,2.0*3F
$GPGSV,3,1,12,26,63,157,39,05,41,334,23,17,39,113,37,12,34,288,20*7A
$GPGSV,3,2,12,15,33,207,35,09,22,131,25,02,17,006,26,04,13,041,36*71
$GPGSV,3,3,12,23,13,047,,10,10,021,30,28,05,147,,25,04,306,*71
$GPRMC,162150.000,A,0658.4583,S,10737.8228,E,0.00,,150613,,*02
$GPVTG,,T,,M,0.00,N,0.0,K*7E
$GPGGA,162151.000,0658.4583,S,10737.8228,E,1,08,1.2,598.5,M,3.0,M,,0000*7B
$GPGLL,0658.4583,S,10737.8228,E,162151.000,A*2A
$GPGSA,A,3,26,17,04,10,15,05,09,02,,,,,2.3,1.2,2.0*3F
$GPRMC,162151.000,A,0658.4583,S,10737.8228,E,0.00,,150613,,*03
$GPVTG,,T,,M,0.00,N,0.0,K*7E
$GPGGA,162152.000,0658.4583,S,10737.8228,E,1,08,1.2,598.5,M,3.0,M,,0000*78
$GPGLL,0658.4583,S,10737.8228,E,162152.000,A*29
$GPGSA,A,3,26,17,04,10,15,05,09,02,,,,,2.3,1.2,2.0*3F
$GPRMC,162152.000,A,0658.4583,S,10737.8228,E,0.00,,150613,,*00
$GPVTG,,T,,M,0.00,N,0.0,K*7E
$GPGGA,162153.000,0658.4583,S,10737.8228,E,1,08,1.2,598.5,M,3.0,M,,0000*79
$GPGLL,0658.4583,S,10737.8228,E,162153.000,A*28
$GPGSA,A,3,26,17,04,10,15,05,09,02,,,,,2.3,1.2,2.0*3F
$GPRMC,162153.000,A,0658.4583,S,10737.8228,E,0.00,,150613,,*01
$GPVTG,,T,,M,0.00,N,0.0,K*7E
$GPGGA,162154.000,0658.4583,S,10737.8228,E,1,07,1.2,598.5,M,3.0,M,,0000*71
$GPGLL,0658.4583,S,10737.8228,E,162154.000,A*2F
$GPGSA,A,3,26,17,04,15,05,09,02,,,,,,2.4,1.2,2.1*38
$GPRMC,162154.000,A,0658.4583,S,10737.8228,E,0.00,,150613,,*06
$GPVTG,,T,,M,0.00,N,0.0,K*7E
$GPGGA,162155.000,0658.4583,S,10737.8228,E,1,07,1.2,598.5,M,3.0,M,,0000*70
$GPGLL,0658.4583,S,10737.8228,E,162155.000,A*2E
$GPGSA,A,3,26,17,04,15,05,09,02,,,,,,2.4,1.2,2.1*38
$GPGSV,3,1,12,26,63,157,43,05,41,334,24,17,39,113,31,12,34,288,25*73
$GPGSV,3,2,12,15,33,207,40,09,22,131,31,02,17,006,26,04,13,041,30*70
$GPGSV,3,3,12,23,13,047,,10,10,021,,28,05,147,,25,04,306,*72
$GPRMC,162155.000,A,0658.4583,S,10737.8228,E,0.00,,150613,,*07
$GPVTG,,T,,M,0.00,N,0.0,K*7E
$GPGGA,162156.000,0658.4583,S,10737.8228,E,1,07,1.2,598.5,M,3.0,M,,0000*73
$GPGLL,0658.4583,S,10737.8228,E,162156.000,A*2D
$GPGSA,A,3,26,17,04,15,05,09,02,,,,,,2.4,1.2,2.1*38
$GPRMC,162156.000,A,0658.4583,S,10737.8228,E,0.00,,150613,,*04
$GPVTG,,T,,M,0.00,N,0.0,K*7E
$GPGGA,162157.000,0658.4583,S,10737.8228,E,1,08,1.2,598.5,M,3.0,M,,0000*7D
$GPGLL,0658.4583,S,10737.8228,E,162157.000,A*2C
$GPGSA,A,3,26,17,04,10,15,05,09,02,,,,,2.3,1.2,2.0*3F
$GPRMC,162157.000,A,0658.4583,S,10737.8228,E,0.00,,150613,,*05
$GPVTG,,T,,M,0.00,N,0.0,K*7E
$GPGGA,162158.000,0658.4583,S,10737.8228,E,1,08,1.2,598.5,M,3.0,M,,0000*72
$GPGLL,0658.4583,S,10737.8228,E,162158.000,A*23
$GPGSA,A,3,26,17,04,10,15,05,09,02,,,,,2.3,1.2,2.0*3F
$GPRMC,162158.000,A,0658.4583,S,10737.8228,E,0.00,,150613,,*0A
$GPVTG,,T,,M,0.00,N,0.0,K*7E
$GPGGA,162159.000,0658.4583,S,10737.8228,E,1,08,1.2,598.5,M,3.0,M,,0000*73
$GPGLL,0658.4583,S,10737.8228,E,162159.000,A*22
$GPGSA,A,3,26,17,04,10,15,05,09,02,,,,,2.3,1.2,2.0*3F
$GPRMC,162159.000,A,0658.4583,S,10737.8228,E,0.00,,150613,,*0B
$GPVTG,,T,,M,0.00,N,0.0,K*7E
$GPGGA,162200.000,0658.4583,S,10737.8228,E,1,08,1.2,598.5,M,3.0,M,,0000*7C
$GPGLL,0658.4583,S,10737.8228,E,162200.000,A*2D
$GPGSA,A,3,26,17,04,10,15,05,09,02,,,,,2.3,1.2,2.0*3F
$GPGSV,3,1,12,26,63,157,44,05,41,334,24,17,39,113,35,12,34,288,*77
$GPGSV,3,2,12,15,33,207,41,09,22,131,31,02,17,006,25,04,13,041,36*74
$GPGSV,3,3,12,23,13,047,,10,10,021,30,28,05,147,,25,04,306,*71
$GPRMC,162200.000,A,0658.4583,S,10737.8228,E,0.00,,150613,,*04
$GPVTG,,T,,M,0.00,N,0.0,K*7E
$GPGGA,162201.000,0658.4583,S,10737.8228,E,1,08,1.2,598.5,M,3.0,M,,0000*7D
$GPGLL,0658.4583,S,10737.8228,E,162201.000,A*2C
$GPGSA,A,3,26,17,04,10,15,05,09,02,,,,,2.3,1.2,2.0*3F
$GPRMC,162201.000,A,0658.4583,S,10737.8228,E,0.00,,150613,,*05
$GPVTG,,T,,M,0.00,N,0.0,K*7E
$GPGGA,162202.000,0658.4583,S,10737.8228,E,1,08,1.2,598.5,M,3.0,M,,0000*7E
$GPGLL,0658.4583,S,10737.8228,E,162202.000,A*2F
$GPGSA,A,3,26,17,04,10,15,05,09,02,,,,,2.3,1.2,2.0*3F
$GPRMC,162202.000,A,0658.4583,S,10737.8228,E,0.00,,150613,,*06
$GPVTG,,T,,M,0.00,N,0.0,K*7E
$GPGGA,162203.000,0658.4583,S,10737.8228,E,1,08,1.2,598.5,M,3.0,M,,0000*7F
$GPGLL,0658.4583,S,10737.8228,E,162203.000,A*2E
$GPGSA,A,3,26,17,04,10,15,05,09,02,,,,,2.3,1.2,2.0*3F
$GPRMC,162203.000,A,0658.4583,S,10737.8228,E,0.00,,150613,,*07
$GPVTG,,T,,M,0.00,N,0.0,K*7E
$GPGGA,162204.000,0658.4583,S,10737.8228,E,1,08,1.2,598.5,M,3.0,M,,0000*78
$GPGLL,0658.4583,S,10737.8228,E,162204.000,A*29
$GPGSA,A,3,26,17,04,10,15,05,09,02,,,,,2.3,1.2,2.0*3F
$GPRMC,162204.000,A,0658.4583,S,10737.8228,E,0.00,,150613,,*00
$GPVTG,,T,,M,0.00,N,0.0,K*7E
$GPGGA,162205.000,0658.4583,S,10737.8228,E,1,08,1.2,598.5,M,3.0,M,,0000*79
$GPGLL,0658.4583,S,10737.8228,E,162205.000,A*28
$GPGSA,A,3,26,17,04,10,15,05,09,02,,,,,2.3,1.2,2.0*3F
$GPGSV,3,1,12,26,63,157,46,05,41,334,24,17,39,113,35,12,34,288,43*72
$GPGSV,3,2,12,15,33,207,42,09,22,131,30,02,17,006,24,04,13,041,37*76
$GPGSV,3,3,12,23,13,047,,10,10,021,21,28,05,147,,25,04,306,*71
$GPRMC,162205.000,A,0658.4583,S,10737.8228,E,0.00,,150613,,*01
$GPVTG,,T,,M,0.00,N,0.0,K*7E
$GPGGA,162206.000,0658.4583,S,10737.8228,E,1,08,1.2,598.5,M,3.0,M,,0000*7A
$GPGLL,0658.4583,S,10737.8228,E,162206.000,A*2B
$GPGSA,A,3,26,17,04,10,15,05,09,02,,,,,2.3,1.2,2.0*3F
$GPRMC,162206.000,A,0658.4583,S,10737.8228,E,0.00,,150613,,*02
$GPVTG,,T,,M,0.00,N,0.0,K*7E
$GPGGA,162207.000,0658.4583,S,10737.8228,E,1,07,1.2,598.5,M,3.0,M,,0000*74
$GPGLL,0658.4583,S,10737.8228,E,162207.000,A*2A
$GPGSA,A,3,26,17,04,15,05,09,02,,,,,,2.4,1.2,2.1*38
$GPRMC,162207.000,A,0658.4583,S,10737.8228,E,0.00,,150613,,*03
$GPVTG,,T,,M,0.00,N,0.0,K*7E
$GPGGA,162208.000,0658.4583,S,10737.8228,E,1,08,1.2,598.5,M,3.0,M,,0000*74
$GPGLL,0658.4583,S,10737.8228,E,162208.000,A*25
$GPGSA,A,3,26,17,04,10,15,05,09,02,,,,,2.3,1.2,2.0*3F
$GPRMC,162208.000,A,0658.4583,S,10737.8228,E,0.00,,150613,,*0C
$GPVTG,,T,,M,0.00,N,0.0,K*7E
$GPGGA,162209.000,0658.4583,S,10737.8228,E,1,07,1.3,598.5,M,3.0,M,,0000*7B
$GPGLL,0658.4583,S,10737.8228,E,162209.000,A*24
$GPGSA,A,3,26,17,04,10,15,05,02,,,,,,2.6,1.3,2.2*30
$GPRMC,162209.000,A,0658.4583,S,10737.8228,E,0.00,,150613,,*0D
$GPVTG,,T,,M,0.00,N,0.0,K*7E
$GPGGA,162210.000,0658.4583,S,10737.8228,E,1,06,1.3,598.5,M,3.0,M,,0000*72
$GPGLL,0658.4583,S,10737.8228,E,162210.000,A*2C
$GPGSA,A,3,26,17,04,15,05,02,,,,,,,2.7,1.3,2.4*36
$GPGSV,3,1,12,26,63,157,43,05,41,334,24,17,39,113,44,12,34,288,37*72
$GPGSV,3,2,12,15,33,207,40,09,22,131,,02,17,006,23,04,13,041,27*71
$GPGSV,3,3,12,23,13,047,,10,10,021,22,28,05,147,,25,04,306,*72
$GPRMC,162210.000,A,0658.4583,S,10737.8228,E,0.00,,150613,,*05
$GPVTG,,T,,M,0.00,N,0.0,K*7E
$GPGGA,162211.000,0658.4583,S,10737.8228,E,1,06,1.3,598.5,M,3.0,M,,0000*73
$GPGLL,0658.4583,S,10737.8228,E,162211.000,A*2D
$GPGSA,A,3,26,17,04,15,05,02,,,,,,,2.7,1.3,2.4*36
$GPRMC,162211.000,A,0658.4583,S,10737.8228,E,0.00,,150613,,*04
$GPVTG,,T,,M,0.00,N,0.0,K*7E
$GPGGA,162212.000,0658.4583,S,10737.8228,E,1,05,1.4,598.5,M,3.0,M,,0000*74
$GPGLL,0658.4583,S,10737.8228,E,162212.000,A*2E
$GPGSA,A,3,26,17,15,05,02,,,,,,,,3.0,1.4,2.7*30
$GPRMC,162212.000,A,0658.4583,S,10737.8228,E,0.00,,150613,,*07
$GPVTG,,T,,M,0.00,N,0.0,K*7E
$GPGGA,162213.000,0658.4583,S,10737.8228,E,1,05,1.4,598.5,M,3.0,M,,0000*75
$GPGLL,0658.4583,S,10737.8228,E,162213.000,A*2F
$GPGSA,A,3,26,17,15,05,02,,,,,,,,3.0,1.4,2.7*30
$GPRMC,162213.000,A,0658.4583,S,10737.8228,E,0.00,,150613,,*06
$GPVTG,,T,,M,0.00,N,0.0,K*7E
$GPGGA,162214.000,0658.4583,S,10737.8228,E,1,06,1.2,598.5,M,3.0,M,,0000*77
$GPGLL,0658.4583,S,10737.8228,E,162214.000,A*28
$GPGSA,A,3,26,17,09,15,05,02,,,,,,,2.5,1.2,2.2*3E
$GPRMC,162214.000,A,0658.4583,S,10737.8228,E,0.00,,150613,,*01
$GPVTG,,T,,M,0.00,N,0.0,K*7E
$GPGGA,162215.000,0658.4583,S,10737.8228,E,1,06,1.2,598.5,M,3.0,M,,0000*76
$GPGLL,0658.4583,S,10737.8228,E,162215.000,A*29
$GPGSA,A,3,26,17,09,15,05,02,,,,,,,2.5,1.2,2.2*3E
$GPGSV,3,1,12,26,63,157,45,05,41,334,25,17,39,113,43,12,34,288,39*7C
$GPGSV,3,2,12,15,33,207,41,09,22,131,35,02,17,006,22,04,13,041,*72
$GPGSV,3,3,12,23,13,047,,10,10,021,21,28,05,147,,25,04,306,*71
$GPRMC,162215.000,A,0658.4583,S,10737.8228,E,0.00,,150613,,*00
$GPVTG,,T,,M,0.00,N,0.0,K*7E
$GPGGA,162216.000,0658.4583,S,10737.8228,E,1,05,1.4,598.5,M,3.0,M,,0000*70
$GPGLL,0658.4583,S,10737.8228,E,162216.000,A*2A
$GPGSA,A,3,26,17,09,15,05,,,,,,,,3.1,1.4,2.8*35
$GPRMC,162216.000,A,0658.4583,S,10737.8228,E,0.00,,150613,,*03
$GPVTG,,T,,M,0.00,N,0.0,K*7E
$GPGGA,162217.000,0658.4583,S,10737.8228,E,1,05,1.4,598.5,M,3.0,M,,0000*71
$GPGLL,0658.4583,S,10737.8228,E,162217.000,A*2B
$GPGSA,A,3,26,17,09,15,05,,,,,,,,3.1,1.4,2.8*35
$GPRMC,162217.000,A,0658.4583,S,10737.8228,E,0.00,,150613,,*02
$GPVTG,,T,,M,0.00,N,0.0,K*7E
$GPGGA,162218.000,0658.4583,S,10737.8228,E,1,07,1.2,598.5,M,3.0,M,,0000*7A
$GPGLL,0658.4583,S,10737.8228,E,162218.000,A*24
$GPGSA,A,3,26,17,09,10,15,05,02,,,,,,2.4,1.2,2.0*3C
$GPRMC,162218.000,A,0658.4583,S,10737.8228,E,0.00,,150613,,*0D
$GPVTG,,T,,M,0.00,N,0.0,K*7E
$GPGGA,162219.000,0658.4583,S,10737.8228,E,1,07,1.2,598.5,M,3.0,M,,0000*7B
$GPGLL,0658.4583,S,10737.8228,E,162219.000,A*25
$GPGSA,A,3,26,17,09,10,15,05,02,,,,,,2.4,1.2,2.0*3C
$GPRMC,162219.000,A,0658.4583,S,10737.8228,E,0.00,,150613,,*0C
$GPVTG,,T,,M,0.00,N,0.0,K*7E
$GPGGA,162220.000,0658.4583,S,10737.8228,E,1,07,1.2,598.5,M,3.0,M,,0000*71
$GPGLL,0658.4583,S,10737.8228,E,162220.000,A*2F
$GPGSA,A,3,26,17,09,10,15,05,02,,,,,,2.4,1.2,2.0*3C
$GPGSV,3,1,12,26,64,156,45,05,41,335,31,17,39,113,40,12,34,288,40*73
$GPGSV,3,2,12,15,33,207,43,09,22,131,35,02,17,006,22,04,13,041,*70
$GPGSV,3,3,12,23,12,047,,10,10,021,20,28,05,147,,25,04,306,22*71
$GPRMC,162220.000,A,0658.4583,S,10737.8228,E,0.00,,150613,,*06
$GPVTG,,T,,M,0.00,N,0.0,K*7E
$GPGGA,162221.000,0658.4583,S,10737.8228,E,1,07,1.2,598.5,M,3.0,M,,0000*70
$GPGLL,0658.4583,S,10737.8228,E,162221.000,A*2E
$GPGSA,A,3,26,17,09,10,15,05,02,,,,,,2.4,1.2,2.0*3C
$GPRMC,162221.000,A,0658.4583,S,10737.8228,E,0.00,,150613,,*07
$GPVTG,,T,,M,0.00,N,0.0,K*7E
$GPGGA,162222.000,0658.4583,S,10737.8228,E,1,07,1.2,598.5,M,3.0,M,,0000*73
$GPGLL,0658.4583,S,10737.8228,E,162222.000,A*2D
$GPGSA,A,3,26,17,09,10,15,05,02,,,,,,2.4,1.2,2.0*3C
$GPRMC,162222.000,A,0658.4583,S,10737.8228,E,0.00,,150613,,*04
$GPVTG,,T,,M,0.00,N,0.0,K*7E
$GPGGA,162223.000,0658.4583,S,10737.8228,E,1,07,1.2,598.5,M,3.0,M,,0000*72
$GPGLL,0658.4583,S,10737.8228,E,162223.000,A*2C
$GPGSA,A,3,26,17,09,10,15,05,02,,,,,,2.4,1.2,2.0*3C
$GPRMC,162223.000,A,0658.4583,S,10737.8228,E,0.00,,150613,,*05
$GPVTG,,T,,M,0.00,N,0.0,K*7E
$GPGGA,162224.000,0658.4583,S,10737.8228,E,1,07,1.2,598.5,M,3.0,M,,0000*75
$GPGLL,0658.4583,S,10737.8228,E,162224.000,A*2B
$GPGSA,A,3,26,17,09,10,15,05,02,,,,,,2.4,1.2,2.0*3C
$GPRMC,162224.000,A,0658.4583,S,10737.8228,E,0.00,,150613,,*02
$GPVTG,,T,,M,0.00,N,0.0,K*7E
$GPGGA,162225.000,0658.4583,S,10737.8228,E,1,07,1.2,598.5,M,3.0,M,,0000*74
$GPGLL,0658.4583,S,10737.8228,E,162225.000,A*2A
$GPGSA,A,3,26,17,09,10,15,05,02,,,,,,2.4,1.2,2.0*3C
$GPGSV,3,1,12,26,64,156,44,05,41,335,38,17,39,113,38,12,34,288,38*7B
$GPGSV,3,2,12,15,33,207,34,09,22,131,33,02,17,006,21,04,13,041,*75
$GPGSV,3,3,12,23,12,047,,10,10,021,19,28,05,147,,25,04,306,20*79
$GPRMC,162225.000,A,0658.4583,S,10737.8228,E,0.00,,150613,,*03
$GPVTG,,T,,M,0.00,N,0.0,K*7E
$GPGGA,162226.000,0658.4583,S,10737.8228,E,1,07,1.2,598.5,M,3.0,M,,0000*77
$GPGLL,0658.4583,S,10737.8228,E,162226.000,A*29
$GPGSA,A,3,26,17,09,10,15,05,02,,,,,,2.4,1.2,2.0*3C
$GPRMC,162226.000,A,0658.4583,S,10737.8228,E,0.00,,150613,,*00
$GPVTG,,T,,M,0.00,N,0.0,K*7E
$GPGGA,162227.000,0658.4583,S,10737.8228,E,1,07,1.2,598.5,M,3.0,M,,0000*76
$GPGLL,0658.4583,S,10737.8228,E,162227.000,A*28
$GPGSA,A,3,26,17,09,10,15,05,02,,,,,,2.4,1.2,2.0*3C
$GPRMC,162227.000,A,0658.4583,S,10737.8228,E,0.00,,150613,,*01
$GPVTG,,T,,M,0.00,N,0.0,K*7E
$GPGGA,162228.000,0658.4583,S,10737.8228,E,1,07,1.2,598.5,M,3.0,M,,0000*79
$GPGLL,0658.4583,S,10737.8228,E,162228.000,A*27
$GPGSA,A,3,26,17,09,10,15,05,02,,,,,,2.4,1.2,2.0*3C
$GPRMC,162228.000,A,0658.4583,S,10737.8228,E,0.00,,150613,,*0E
$GPVTG,,T,,M,0.00,N,0.0,K*7E
$GPGGA,162229.000,0658.4583,S,10737.8228,E,1,07,1.2,598.5,M,3.0,M,,0000*78
$GPGLL,0658.4583,S,10737.8228,E,162229.000,A*26
$GPGSA,A,3,26,17,09,10,15,05,02,,,,,,2.4,1.2,2.0*3C
$GPRMC,162229.000,A,0658.4583,S,10737.8228,E,0.00,,150613,,*0F
$GPVTG,,T,,M,0.00,N,0.0,K*7E
$GPGGA,162230.000,0658.4583,S,10737.8228,E,1,07,1.2,598.5,M,3.0,M,,0000*70
$GPGLL,0658.4583,S,10737.8228,E,162230.000,A*2E
$GPGSA,A,3,26,17,09,10,15,05,02,,,,,,2.4,1.2,2.0*3C
$GPGSV,3,1,12,26,64,156,44,05,41,335,39,17,39,113,41,12,34,288,38*74
$GPGSV,3,2,12,15,33,207,45,09,22,131,34,02,17,006,22,04,13,041,*77
$GPGSV,3,3,12,23,12,047,,10,10,021,19,28,05,147,,25,04,306,19*73
$GPRMC,162230.000,A,0658.4583,S,10737.8228,E,0.00,,150613,,*07
$GPVTG,,T,,M,0.00,N,0.0,K*7E
$GPGGA,162231.000,0658.4583,S,10737.8228,E,1,07,1.2,598.5,M,3.0,M,,0000*71
$GPGLL,0658.4583,S,10737.8228,E,162231.000,A*2F
$GPGSA,A,3,26,17,09,10,15,05,02,,,,,,2.4,1.2,2.0*3C
$GPRMC,162231.000,A,0658.4583,S,10737.8228,E,0.00,,150613,,*06
$GPVTG,,T,,M,0.00,N,0.0,K*7E
$GPGGA,162232.000,0658.4583,S,10737.8228,E,1,07,1.2,598.5,M,3.0,M,,0000*72
$GPGLL,0658.4583,S,10737.8228,E,162232.000,A*2C
$GPGSA,A,3,26,17,09,10,15,05,02,,,,,,2.4,1.2,2.0*3C
$GPRMC,162232.000,A,0658.4583,S,10737.8228,E,0.00,,150613,,*05
$GPVTG,,T,,M,0.00,N,0.0,K*7E
$GPGGA,162233.000,0658.4583,S,10737.8228,E,1,07,1.2,598.5,M,3.0,M,,0000*73
$GPGLL,0658.4583,S,10737.8228,E,162233.000,A*2D
$GPGSA,A,3,26,17,09,10,15,05,02,,,,,,2.4,1.2,2.0*3C
$GPRMC,162233.000,A,0658.4583,S,10737.8228,E,0.00,,150613,,*04
$GPVTG,,T,,M,0.00,N,0.0,K*7E
$GPGGA,162234.000,0658.4583,S,10737.8228,E,1,07,1.2,598.5,M,3.0,M,,0000*74
$GPGLL,0658.4583,S,10737.8228,E,162234.000,A*2A
$GPGSA,A,3,26,17,09,10,15,05,02,,,,,,2.4,1.2,2.0*3C
$GPRMC,162234.000,A,0658.4583,S,10737.8228,E,0.00,,150613,,*03
$GPVTG,,T,,M,0.00,N,0.0,K*7E
$GPGGA,162235.000,0658.4583,S,10737.8228,E,1,07,1.2,598.5,M,3.0,M,,0000*75
$GPGLL,0658.4583,S,10737.8228,E,162235.000,A*2B
$GPGSA,A,3,26,17,09,10,15,05,02,,,,,,2.4,1.2,2.0*3C
$GPGSV,3,1,12,26,64,156,38,05,41,335,33,17,39,113,39,12,34,288,43*76
$GPGSV,3,2,12,15,33,207,39,09,22,131,30,02,17,006,22,04,13,041,*78
$GPGSV,3,3,12,23,12,047,,10,10,021,18,28,05,147,,25,04,306,18*73
$GPRMC,162235.000,A,0658.4583,S,10737.8228,E,0.00,,150613,,*02
$GPVTG,,T,,M,0.00,N,0.0,K*7E
$GPGGA,162236.000,0658.4583,S,10737.8228,E,1,07,1.2,598.5,M,3.0,M,,0000*76
$GPGLL,0658.4583,S,10737.8228,E,162236.000,A*28
$GPGSA,A,3,26,17,09,10,15,05,02,,,,,,2.4,1.2,2.0*3C
$GPRMC,162236.000,A,0658.4583,S,10737.8228,E,0.00,,150613,,*01
$GPVTG,,T,,M,0.00,N,0.0,K*7E
$GPGGA,162237.000,0658.4583,S,10737.8228,E,1,07,1.2,598.5,M,3.0,M,,0000*77
$GPGLL,0658.4583,S,10737.8228,E,162237.000,A*29
$GPGSA,A,3,26,17,09,10,15,05,02,,,,,,2.4,1.2,2.0*3C
$GPRMC,162237.000,A,0658.4583,S,10737.8228,E,0.00,,150613,,*00
$GPVTG,,T,,M,0.00,N,0.0,K*7E
$GPGGA,162238.000,0658.4583,S,10737.8228,E,1,07,1.2,598.5,M,3.0,M,,0000*78
$GPGLL,0658.4583,S,10737.8228,E,162238.000,A*26
$GPGSA,A,3,26,17,09,10,15,05,02,,,,,,2.4,1.2,2.0*3C
$GPRMC,162238.000,A,0658.4583,S,10737.8228,E,0.00,,150613,,*0F
$GPVTG,,T,,M,0.00,N,0.0,K*7E
$GPGGA,162239.000,0658.4583,S,10737.8228,E,1,07,1.2,598.5,M,3.0,M,,0000*79
$GPGLL,0658.4583,S,10737.8228,E,162239.000,A*27
$GPGSA,A,3,26,17,09,10,15,05,02,,,,,,2.4,1.2,2.0*3C
$GPRMC,162239.000,A,0658.4583,S,10737.8228,E,0.00,,150613,,*0E
$GPVTG,,T,,M,0.00,N,0.0,K*7E
$GPGGA,162240.000,0658.4583,S,10737.8228,E,1,07,1.2,598.5,M,3.0,M,,0000*77
$GPGLL,0658.4583,S,10737.8228,E,162240.000,A*29
$GPGSA,A,3,26,17,09,10,15,05,02,,,,,,2.4,1.2,2.0*3C
$GPGSV,3,1,12,26,64,156,38,05,41,335,43,17,39,113,33,12,34,288,43*7B
$GPGSV,3,2,12,15,33,207,41,09,22,131,37,02,17,006,21,04,13,041,*73
$GPGSV,3,3,12,23,12,047,,10,10,021,18,28,05,147,,25,04,306,18*73
$GPRMC,162240.000,A,0658.4583,S,10737.8228,E,0.00,,150613,,*00
$GPVTG,,T,,M,0.00,N,0.0,K*7E
$GPGGA,162241.000,0658.4583,S,10737.8228,E,1,07,1.2,598.5,M,3.0,M,,0000*76
$GPGLL,0658.4583,S,10737.8228,E,162241.000,A*28
$GPGSA,A,3,26,17,09,10,15,05,02,,,,,,2.4,1.2,2.0*3C
$GPRMC,162241.000,A,0658.4583,S,10737.8228,E,0.00,,150613,,*01
$GPVTG,,T,,M,0.00,N,0.0,K*7E
$GPGGA,162242.000,0658.4583,S,10737.8228,E,1,07,1.2,598.5,M,3.0,M,,0000*75
$GPGLL,0658.4583,S,10737.8228,E,162242.000,A*2B
$GPGSA,A,3,26,17,09,10,15,05,02,,,,,,2.4,1.2,2.0*3C
$GPRMC,162242.000,A,0658.4583,S,10737.8228,E,0.00,,150613,,*02
$GPVTG,,T,,M,0.00,N,0.0,K*7E
$GPGGA,162243.000,0658.4583,S,10737.8228,E,1,07,1.2,598.5,M,3.0,M,,0000*74
$GPGLL,0658.4583,S,10737.8228,E,162243.000,A*2A
$GPGSA,A,3,26,17,09,10,15,05,02,,,,,,2.4,1.2,2.0*3C
$GPRMC,162243.000,A,0658.4583,S,10737.8228,E,0.00,,150613,,*03
$GPVTG,,T,,M,0.00,N,0.0,K*7E
$GPGGA,162244.000,0658.4583,S,10737.8228,E,1,07,1.2,598.5,M,3.0,M,,0000*73
$GPGLL,0658.4583,S,10737.8228,E,162244.000,A*2D
$GPGSA,A,3,26,17,09,10,15,05,02,,,,,,2.4,1.2,2.0*3C
$GPRMC,162244.000,A,0658.4583,S,10737.8228,E,0.00,,150613,,*04
$GPVTG,,T,,M,0.00,N,0.0,K*7E
$GPGGA,162245.000,0658.4583,S,10737.8228,E,1,07,1.2,598.5,M,3.0,M,,0000*72
$GPGLL,0658.4583,S,10737.8228,E,162245.000,A*2C
$GPGSA,A,3,26,17,09,10,15,05,02,,,,,,2.4,1.2,2.0*3C
$GPGSV,3,1,12,26,64,156,38,05,41,335,43,17,39,113,36,12,34,288,42*7F
$GPGSV,3,2,12,15,33,207,41,09,22,131,36,02,17,006,21,04,13,041,*72
$GPGSV,3,3,12,23,12,047,,10,10,021,19,28,05,147,,25,04,306,18*72
$GPRMC,162245.000,A,0658.4583,S,10737.8228,E,0.00,,150613,,*05
$GPVTG,,T,,M,0.00,N,0.0,K*7E
$GPGGA,162246.000,0658.4583,S,10737.8228,E,1,07,1.2,598.5,M,3.0,M,,0000*71
$GPGLL,0658.4583,S,10737.8228,E,162246.000,A*2F
$GPGSA,A,3,26,17,09,10,15,05,02,,,,,,2.4,1.2,2.0*3C
$GPRMC,162246.000,A,0658.4583,S,10737.8228,E,0.00,,150613,,*06
$GPVTG,,T,,M,0.00,N,0.0,K*7E
$GPGGA,162247.000,0658.4583,S,10737.8228,E,1,07,1.2,598.5,M,3.0,M,,0000*70
$GPGLL,0658.4583,S,10737.8228,E,162247.000,A*2E
$GPGSA,A,3,26,17,09,10,15,05,02,,,,,,2.4,1.2,2.0*3C
$GPRMC,162247.000,A,0658.4583,S,10737.8228,E,0.00,,150613,,*07
$GPVTG,,T,,M,0.00,N,0.0,K*7E
$GPGGA,162248.000,0658.4583,S,10737.8228,E,1,07,1.2,598.5,M,3.0,M,,0000*7F
$GPGLL,0658.4583,S,10737.8228,E,162248.000,A*21
$GPGSA,A,3,26,17,09,10,15,05,02,,,,,,2.4,1.2,2.0*3C
$GPRMC,162248.000,A,0658.4583,S,10737.8228,E,0.00,,150613,,*08
$GPVTG,,T,,M,0.00,N,0.0,K*7E
$GPGGA,162249.000,0658.4583,S,10737.8228,E,1,07,1.2,598.5,M,3.0,M,,0000*7E
$GPGLL,0658.4583,S,10737.8228,E,162249.000,A*20
$GPGSA,A,3,26,17,09,10,15,05,02,,,,,,2.4,1.2,2.0*3C
$GPRMC,162249.000,A,0658.4583,S,10737.8228,E,0.00,,150613,,*09
$GPVTG,,T,,M,0.00,N,0.0,K*7E
$GPGGA,162250.000,0658.4583,S,10737.8228,E,1,07,1.2,598.5,M,3.0,M,,0000*76
$GPGLL,0658.4583,S,10737.8228,E,162250.000,A*28
$GPGSA,A,3,26,17,09,10,15,05,02,,,,,,2.4,1.2,2.0*3C
$GPGSV,3,1,12,26,64,156,38,05,41,335,39,17,39,114,41,12,34,287,42*7A
$GPGSV,3,2,12,15,33,207,40,09,22,131,35,02,17,007,21,04,13,041,*71
$GPGSV,3,3,12,23,12,047,,10,10,021,18,28,05,147,,25,04,306,17*7C
$GPRMC,162250.000,A,0658.4583,S,10737.8228,E,0.00,,150613,,*01
$GPVTG,,T,,M,0.00,N,0.0,K*7E
$GPGGA,162251.000,0658.4583,S,10737.8228,E,1,07,1.2,598.5,M,3.0,M,,0000*77
$GPGLL,0658.4583,S,10737.8228,E,162251.000,A*29
$GPGSA,A,3,26,17,09,10,15,05,02,,,,,,2.4,1.2,2.0*3C
$GPRMC,162251.000,A,0658.4583,S,10737.8228,E,0.00,,150613,,*00
$GPVTG,,T,,M,0.00,N,0.0,K*7E
$GPGGA,162252.000,0658.4583,S,10737.8228,E,1,07,1.2,598.5,M,3.0,M,,0000*74
$GPGLL,0658.4583,S,10737.8228,E,162252.000,A*2A
$GPGSA,A,3,26,17,09,10,15,05,02,,,,,,2.4,1.2,2.0*3C
$GPRMC,162252.000,A,0658.4583,S,10737.8228,E,0.00,,150613,,*03
$GPVTG,,T,,M,0.00,N,0.0,K*7E
$GPGGA,162253.000,0658.4583,S,10737.8228,E,1,07,1.2,598.5,M,3.0,M,,0000*75
$GPGLL,0658.4583,S,10737.8228,E,162253.000,A*2B
$GPGSA,A,3,26,17,09,10,15,05,02,,,,,,2.4,1.2,2.0*3C
$GPRMC,162253.000,A,0658.4583,S,10737.8228,E,0.00,,150613,,*02
$GPVTG,,T,,M,0.00,N,0.0,K*7E
$GPGGA,162254.000,0658.4583,S,10737.8228,E,1,07,1.2,598.5,M,3.0,M,,0000*72
$GPGLL,0658.4583,S,10737.8228,E,162254.000,A*2C
$GPGSA,A,3,26,17,09,10,15,05,02,,,,,,2.4,1.2,2.0*3C
$GPRMC,162254.000,A,0658.4583,S,10737.8228,E,0.00,,150613,,*05
$GPVTG,,T,,M,0.00,N,0.0,K*7E
$GPGGA,162255.000,0658.4583,S,10737.8228,E,1,07,1.2,598.5,M,3.0,M,,0000*73
$GPGLL,0658.4583,S,10737.8228,E,162255.000,A*2D
$GPGSA,A,3,26,17,09,10,15,05,02,,,,,,2.4,1.2,2.0*3C
$GPGSV,3,1,12,26,64,156,34,05,41,335,41,17,39,114,36,12,34,287,31*7D
$GPGSV,3,2,12,15,33,207,41,09,22,131,32,02,17,007,26,04,13,041,*70
$GPGSV,3,3,12,23,12,047,,10,10,021,18,28,05,147,,25,04,306,18*73
$GPRMC,162255.000,A,0658.4583,S,10737.8228,E,0.00,,150613,,*04
$GPVTG,,T,,M,0.00,N,0.0,K*7E
$GPGGA,162256.000,0658.4583,S,10737.8228,E,1,07,1.2,598.5,M,3.0,M,,0000*70
$GPGLL,0658.4583,S,10737.8228,E,162256.000,A*2E
$GPGSA,A,3,26,17,09,10,15,05,02,,,,,,2.4,1.2,2.0*3C
$GPRMC,162256.000,A,0658.4583,S,10737.8228,E,0.00,,150613,,*07
$GPVTG,,T,,M,0.00,N,0.0,K*7E
$GPGGA,162257.000,0658.4583,S,10737.8228,E,1,07,1.2,598.5,M,3.0,M,,0000*71
$GPGLL,0658.4583,S,10737.8228,E,162257.000,A*2F
$GPGSA,A,3,26,17,09,10,15,05,02,,,,,,2.4,1.2,2.0*3C
$GPRMC,162257.000,A,0658.4583,S,10737.8228,E,0.00,,150613,,*06
$GPVTG,,T,,M,0.00,N,0.0,K*7E
$GPGGA,162258.000,0658.4583,S,10737.8228,E,1,07,1.2,598.5,M,3.0,M,,0000*7E
$GPGLL,0658.4583,S,10737.8228,E,162258.000,A*20
$GPGSA,A,3,26,17,09,10,15,05,02,,,,,,2.4,1.2,2.0*3C
$GPRMC,162258.000,A,0658.4583,S,10737.8228,E,0.00,,150613,,*09
$GPVTG,,T,,M,0.00,N,0.0,K*7E
$GPGGA,162259.000,0658.4583,S,10737.8228,E,1,07,1.2,598.5,M,3.0,M,,0000*7F
$GPGLL,0658.4583,S,10737.8228,E,162259.000,A*21
$GPGSA,A,3,26,17,09,10,15,05,02,,,,,,2.4,1.2,2.0*3C
$GPRMC,162259.000,A,0658.4583,S,10737.8228,E,0.00,,150613,,*08
$GPVTG,,T,,M,0.00,N,0.0,K*7E
$GPGGA,162300.000,0658.4583,S,10737.8228,E,1,07,1.2,598.5,M,3.0,M,,0000*72
$GPGLL,0658.4583,S,10737.8228,E,162300.000,A*2C
$GPGSA,A,3,26,17,09,10,15,05,02,,,,,,2.4,1.2,2.0*3C
$GPGSV,3,1,12,26,64,156,37,05,41,335,42,17,39,114,34,12,34,287,30*7E
$GPGSV,3,2,12,15,33,207,41,09,22,131,29,02,17,007,25,04,13,041,*79
$GPGSV,3,3,12,23,12,047,,10,10,021,19,28,05,147,,25,04,306,18*72
$GPRMC,162300.000,A,0658.4583,S,10737.8228,E,0.00,,150613,,*05
$GPVTG,,T,,M,0.00,N,0.0,K*7E
$GPGGA,162301.000,0658.4583,S,10737.8228,E,1,07,1.2,598.5,M,3.0,M,,0000*73
$GPGLL,0658.4583,S,10737.8228,E,162301.000,A*2D
$GPGSA,A,3,26,17,09,10,15,05,02,,,,,,2.4,1.2,2.0*3C
$GPRMC,162301.000,A,0658.4583,S,10737.8228,E,0.00,,150613,,*04
$GPVTG,,T,,M,0.00,N,0.0,K*7E
$GPGGA,162302.000,0658.4583,S,10737.8228,E,1,07,1.2,598.5,M,3.0,M,,0000*70
$GPGLL,0658.4583,S,10737.8228,E,162302.000,A*2E
$GPGSA,A,3,26,17,09,10,15,05,02,,,,,,2.4,1.2,2.0*3C
$GPRMC,162302.000,A,0658.4583,S,10737.8228,E,0.00,,150613,,*07
$GPVTG,,T,,M,0.00,N,0.0,K*7E
$GPGGA,162303.000,0658.4583,S,10737.8228,E,1,04,1.7,598.5,M,3.0,M,,0000*77
$GPGLL,0658.4583,S,10737.8228,E,162303.000,A*2F
$GPGSA,A,3,17,09,10,15,,,,,,,,,4.7,1.7,4.4*3D
$GPRMC,162303.000,A,0658.4583,S,10737.8228,E,0.00,,150613,,*06
$GPVTG,,T,,M,0.00,N,0.0,K*7E
$GPGGA,162304.000,0658.4583,S,10737.8228,E,1,04,1.7,598.5,M,3.0,M,,0000*70
$GPGLL,0658.4583,S,10737.8228,E,162304.000,A*28
$GPGSA,A,3,17,09,10,15,,,,,,,,,4.7,1.7,4.4*3D
$GPRMC,162304.000,A,0658.4583,S,10737.8228,E,0.00,,150613,,*01
$GPVTG,,T,,M,0.00,N,0.0,K*7E
$GPGGA,162305.000,0658.4583,S,10737.8228,E,1,05,1.6,598.5,M,3.0,M,,0000*71
$GPGLL,0658.4583,S,10737.8228,E,162305.000,A*29
$GPGSA,A,3,04,17,09,10,15,,,,,,,,4.7,1.6,4.4*38
$GPGSV,3,1,12,26,64,156,,05,41,335,,17,39,114,41,12,34,287,34*7A
$GPGSV,3,2,12,15,33,207,37,09,22,131,27,02,17,007,,04,13,041,31*73
$GPGSV,3,3,12,23,12,047,,10,10,021,18,28,05,147,,25,04,306,*7A
$GPRMC,162305.000,A,0658.4583,S,10737.8228,E,0.00,,150613,,*00
$GPVTG,,T,,M,0.00,N,0.0,K*7E
$GPGGA,162306.000,0658.4583,S,10737.8228,E,1,06,1.4,598.5,M,3.0,M,,0000*73
$GPGLL,0658.4583,S,10737.8228,E,162306.000,A*2A
$GPGSA,A,3,04,17,09,10,15,26,,,,,,,2.7,1.4,2.3*39
$GPRMC,162306.000,A,0658.4583,S,10737.8228,E,0.00,,150613,,*03
$GPVTG,,T,,M,0.00,N,0.0,K*7E
$GPGGA,162307.000,0658.4583,S,10737.8228,E,1,06,1.4,598.5,M,3.0,M,,0000*72
$GPGLL,0658.4583,S,10737.8228,E,162307.000,A*2B
$GPGSA,A,3,04,17,09,10,15,26,,,,,,,2.7,1.4,2.3*39
$GPRMC,162307.000,A,0658.4583,S,10737.8228,E,0.00,,150613,,*02
$GPVTG,,T,,M,0.00,N,0.0,K*7E
$GPGGA,162308.000,0658.4583,S,10737.8228,E,1,08,1.2,598.5,M,3.0,M,,0000*75
$GPGLL,0658.4583,S,10737.8228,E,162308.000,A*24
$GPGSA,A,3,04,17,09,10,15,02,05,26,,,,,2.3,1.2,2.0*3F
$GPRMC,162308.000,A,0658.4583,S,10737.8228,E,0.00,,150613,,*0D
$GPVTG,,T,,M,0.00,N,0.0,K*7E
$GPGGA,162309.000,0658.4583,S,10737.8228,E,1,07,1.2,598.5,M,3.0,M,,0000*7B
$GPGLL,0658.4583,S,10737.8228,E,162309.000,A*25
$GPGSA,A,3,04,17,09,15,02,05,26,,,,,,2.4,1.2,2.1*38
$GPRMC,162309.000,A,0658.4583,S,10737.8228,E,0.00,,150613,,*0C
$GPVTG,,T,,M,0.00,N,0.0,K*7E
$GPGGA,162310.000,0658.4583,S,10737.8228,E,1,07,1.2,598.5,M,3.0,M,,0000*73
$GPGLL,0658.4583,S,10737.8228,E,162310.000,A*2D
$GPGSA,A,3,04,17,09,15,02,05,26,,,,,,2.4,1.2,2.1*38
$GPGSV,3,1,12,26,64,156,37,05,41,335,43,17,39,114,33,12,34,287,33*7B
$GPGSV,3,2,12,15,33,207,38,09,22,131,26,02,17,007,24,04,13,041,30*7A
$GPGSV,3,3,12,23,12,047,,10,10,021,,28,05,147,,25,04,306,*73
$GPRMC,162310.000,A,0658.4583,S,10737.8228,E,0.00,,150613,,*04
$GPVTG,,T,,M,0.00,N,0.0,K*7E
$GPGGA,162311.000,0658.4583,S,10737.8228,E,1,03,5.2,598.5,M,3.0,M,,0000*72
$GPGLL,0658.4583,S,10737.8228,E,162311.000,A*2C
$GPGSA,A,2,17,09,15,,,,,,,,,,5.3,5.2,1.0*38
$GPRMC,162311.000,A,0658.4583,S,10737.8228,E,0.00,,150613,,*05
$GPVTG,,T,,M,0.00,N,0.0,K*7E
$GPGGA,162312.000,0658.4583,S,10737.8228,E,1,03,5.2,598.5,M,3.0,M,,0000*71
$GPGLL,0658.4583,S,10737.8228,E,162312.000,A*2F
$GPGSA,A,2,17,09,15,,,,,,,,,,5.3,5.2,1.0*38
$GPRMC,162312.000,A,0658.4583,S,10737.8228,E,0.00,,150613,,*06
$GPVTG,,T,,M,0.00,N,0.0,K*7E
$GPGGA,162313.000,0658.4583,S,10737.8228,E,1,06,1.3,598.5,M,3.0,M,,0000*70
$GPGLL,0658.4583,S,10737.8228,E,162313.000,A*2E
$GPGSA,A,3,02,26,17,09,15,04,,,,,,,2.7,1.3,2.3*3D
$GPRMC,162313.000,A,0658.4583,S,10737.8228,E,0.00,,150613,,*07
$GPVTG,,T,,M,0.00,N,0.0,K*7E
$GPGGA,162314.000,0658.4583,S,10737.8228,E,1,05,1.4,598.5,M,3.0,M,,0000*73
$GPGLL,0658.4583,S,10737.8228,E,162314.000,A*29
$GPGSA,A,3,02,26,17,09,15,,,,,,,,2.8,1.4,2.4*36
$GPRMC,162314.000,A,0658.4583,S,10737.8228,E,0.00,,150613,,*00
$GPVTG,,T,,M,0.00,N,0.0,K*7E
$GPGGA,162315.000,0658.4583,S,10737.8228,E,1,06,1.2,598.5,M,3.0,M,,0000*77
$GPGLL,0658.4583,S,10737.8228,E,162315.000,A*28
$GPGSA,A,3,02,26,17,09,05,15,,,,,,,2.6,1.2,2.2*3D
$GPGSV,3,1,12,26,64,156,37,05,41,335,40,17,39,114,38,12,34,287,*73
$GPGSV,3,2,12,15,33,207,31,09,22,131,26,02,17,007,28,04,13,041,*7C
$GPGSV,3,3,12,23,12,047,,10,10,021,,28,05,147,,25,04,306,*73
$GPRMC,162315.000,A,0658.4583,S,10737.8228,E,0.00,,150613,,*01
$GPVTG,,T,,M,0.00,N,0.0,K*7E
$GPGGA,162316.000,0658.4583,S,10737.8228,E,1,06,1.2,598.5,M,3.0,M,,0000*74
$GPGLL,0658.4583,S,10737.8228,E,162316.000,A*2B
$GPGSA,A,3,02,26,17,09,05,15,,,,,,,2.6,1.2,2.2*3D
$GPRMC,162316.000,A,0658.4583,S,10737.8228,E,0.00,,150613,,*02
$GPVTG,,T,,M,0.00,N,0.0,K*7E
$GPGGA,162317.000,0658.4583,S,10737.8228,E,1,06,1.2,598.5,M,3.0,M,,0000*75
$GPGLL,0658.4583,S,10737.8228,E,162317.000,A*2A
$GPGSA,A,3,02,26,17,09,05,15,,,,,,,2.6,1.2,2.2*3D
$GPRMC,162317.000,A,0658.4583,S,10737.8228,E,0.00,,150613,,*03
$GPVTG,,T,,M,0.00,N,0.0,K*7E
$GPGGA,162318.000,0658.4583,S,10737.8228,E,1,06,1.2,598.5,M,3.0,M,,0000*7A
$GPGLL,0658.4583,S,10737.8228,E,162318.000,A*25
$GPGSA,A,3,02,26,17,09,05,15,,,,,,,2.6,1.2,2.2*3D
$GPRMC,162318.000,A,0658.4583,S,10737.8228,E,0.00,,150613,,*0C
$GPVTG,,T,,M,0.00,N,0.0,K*7E
$GPGGA,162319.000,0658.4583,S,10737.8228,E,1,07,1.2,598.5,M,3.0,M,,0000*7A
$GPGLL,0658.4583,S,10737.8228,E,162319.000,A*24
$GPGSA,A,3,02,26,17,09,05,15,04,,,,,,2.4,1.2,2.1*38
$GPRMC,162319.000,A,0658.4583,S,10737.8228,E,0.00,,150613,,*0D
$GPVTG,,T,,M,0.00,N,0.0,K*7E
$GPGGA,162320.000,0658.4583,S,10737.8228,E,1,07,1.2,598.5,M,3.0,M,,0000*70
$GPGLL,0658.4583,S,10737.8228,E,162320.000,A*2E
$GPGSA,A,3,02,26,17,09,05,15,04,,,,,,2.4,1.2,2.1*38
$GPGSV,3,1,12,26,64,156,38,05,41,335,42,17,39,114,38,12,34,287,37*7A
$GPGSV,3,2,12,15,33,207,31,09,22,131,27,02,17,007,27,04,13,041,30*71
$GPGSV,3,3,12,23,12,047,,10,10,021,,28,05,147,,25,04,306,*73
$GPRMC,162320.000,A,0658.4583,S,10737.8228,E,0.00,,150613,,*07
$GPVTG,,T,,M,0.00,N,0.0,K*7E
$GPGGA,162321.000,0658.4583,S,10737.8228,E,1,07,1.2,598.5,M,3.0,M,,0000*71
$GPGLL,0658.4583,S,10737.8228,E,162321.000,A*2F
$GPGSA,A,3,02,26,17,09,05,15,04,,,,,,2.4,1.2,2.1*38
$GPRMC,162321.000,A,0658.4583,S,10737.8228,E,0.00,,150613,,*06
$GPVTG,,T,,M,0.00,N,0.0,K*7E
$GPGGA,162322.000,0658.4583,S,10737.8228,E,1,06,2.5,598.5,M,3.0,M,,0000*77
$GPGLL,0658.4583,S,10737.8228,E,162322.000,A*2C
$GPGSA,A,3,02,26,17,09,05,04,,,,,,,4.2,2.5,3.3*3B
$GPRMC,162322.000,A,0658.4583,S,10737.8228,E,0.00,,150613,,*05
$GPVTG,,T,,M,0.00,N,0.0,K*7E
$GPGGA,162323.000,0658.4583,S,10737.8228,E,1,07,1.2,598.5,M,3.0,M,,0000*73
$GPGLL,0658.4583,S,10737.8228,E,162323.000,A*2D
$GPGSA,A,3,02,26,17,09,05,15,04,,,,,,2.4,1.2,2.1*38
$GPRMC,162323.000,A,0658.4583,S,10737.8228,E,0.00,,150613,,*04
$GPVTG,,T,,M,0.00,N,0.0,K*7E
$GPGGA,162324.000,0658.4583,S,10737.8228,E,1,07,1.2,598.5,M,3.0,M,,0000*74
$GPGLL,0658.4583,S,10737.8228,E,162324.000,A*2A
$GPGSA,A,3,02,26,17,09,05,15,04,,,,,,2.4,1.2,2.1*38
$GPRMC,162324.000,A,0658.4583,S,10737.8228,E,0.00,,150613,,*03
$GPVTG,,T,,M,0.00,N,0.0,K*7E
$GPGGA,162325.000,0658.4583,S,10737.8228,E,1,07,1.2,598.5,M,3.0,M,,0000*75
$GPGLL,0658.4583,S,10737.8228,E,162325.000,A*2B
$GPGSA,A,3,02,26,17,09,05,15,04,,,,,,2.4,1.2,2.1*38
$GPGSV,3,1,12,26,64,156,38,05,41,335,42,17,39,114,39,12,34,287,32*7E
$GPGSV,3,2,12,15,33,207,33,09,22,131,25,02,17,007,30,04,13,041,26*70
$GPGSV,3,3,12,23,12,047,,10,10,021,,28,05,147,,25,04,306,*73
$GPRMC,162325.000,A,0658.4583,S,10737.8228,E,0.00,,150613,,*02
$GPVTG,,T,,M,0.00,N,0.0,K*7E
$GPGGA,162326.000,0658.4583,S,10737.8228,E,1,07,1.2,598.5,M,3.0,M,,0000*76
$GPGLL,0658.4583,S,10737.8228,E,162326.000,A*28
$GPGSA,A,3,02,26,17,09,05,15,04,,,,,,2.4,1.2,2.1*38
$GPRMC,162326.000,A,0658.4583,S,10737.8228,E,0.00,,150613,,*01
$GPVTG,,T,,M,0.00,N,0.0,K*7E
$GPGGA,162327.000,0658.4583,S,10737.8228,E,1,07,1.2,598.5,M,3.0,M,,0000*77
$GPGLL,0658.4583,S,10737.8228,E,162327.000,A*29
$GPGSA,A,3,02,26,17,09,05,15,04,,,,,,2.4,1.2,2.1*38
$GPRMC,162327.000,A,0658.4583,S,10737.8228,E,0.00,,150613,,*00
$GPVTG,,T,,M,0.00,N,0.0,K*7E
$GPGGA,162328.000,0658.4583,S,10737.8228,E,1,07,1.2,598.5,M,3.0,M,,0000*78
$GPGLL,0658.4583,S,10737.8228,E,162328.000,A*26
$GPGSA,A,3,02,26,17,09,05,15,04,,,,,,2.4,1.2,2.1*38
$GPRMC,162328.000,A,0658.4583,S,10737.8228,E,0.00,,150613,,*0F
$GPVTG,,T,,M,0.00,N,0.0,K*7E
$GPGGA,162329.000,0658.4583,S,10737.8228,E,1,07,1.2,598.5,M,3.0,M,,0000*79
$GPGLL,0658.4583,S,10737.8228,E,162329.000,A*27
$GPGSA,A,3,02,26,17,09,05,15,04,,,,,,2.4,1.2,2.1*38
$GPRMC,162329.000,A,0658.4583,S,10737.8228,E,0.00,,150613,,*0E
$GPVTG,,T,,M,0.00,N,0.0,K*7E
$GPGGA,162330.000,0658.4583,S,10737.8228,E,1,07,1.2,598.5,M,3.0,M,,0000*71
$GPGLL,0658.4583,S,10737.8228,E,162330.000,A*2F
$GPGSA,A,3,02,26,17,09,05,15,04,,,,,,2.4,1.2,2.1*38
$GPGSV,3,1,12,26,64,156,38,05,41,335,43,17,39,114,38,12,34,287,33*7F
$GPGSV,3,2,12,15,33,207,44,09,22,131,33,02,17,007,30,04,13,041,26*77
$GPGSV,3,3,12,23,12,047,,10,10,021,,28,05,147,,25,04,306,*73
$GPRMC,162330.000,A,0658.4583,S,10737.8228,E,0.00,,150613,,*06
$GPVTG,,T,,M,0.00,N,0.0,K*7E
$GPGGA,162331.000,0658.4583,S,10737.8228,E,1,07,1.2,598.5,M,3.0,M,,0000*70
$GPGLL,0658.4583,S,10737.8228,E,162331.000,A*2E
$GPGSA,A,3,02,26,17,09,05,15,04,,,,,,2.4,1.2,2.1*38
$GPRMC,162331.000,A,0658.4583,S,10737.8228,E,0.00,,150613,,*07
$GPVTG,,T,,M,0.00,N,0.0,K*7E
$GPGGA,162332.000,0658.4583,S,10737.8228,E,1,07,1.2,598.5,M,3.0,M,,0000*73
$GPGLL,0658.4583,S,10737.8228,E,162332.000,A*2D
$GPGSA,A,3,02,26,17,09,05,15,04,,,,,,2.4,1.2,2.1*38
$GPRMC,162332.000,A,0658.4583,S,10737.8228,E,0.00,,150613,,*04
$GPVTG,,T,,M,0.00,N,0.0,K*7E
$GPGGA,162333.000,0658.4583,S,10737.8228,E,1,07,1.2,598.5,M,3.0,M,,0000*72
$GPGLL,0658.4583,S,10737.8228,E,162333.000,A*2C
$GPGSA,A,3,02,26,17,09,05,15,04,,,,,,2.4,1.2,2.1*38
$GPRMC,162333.000,A,0658.4583,S,10737.8228,E,0.00,,150613,,*05
$GPVTG,,T,,M,0.00,N,0.0,K*7E
$GPGGA,162334.000,0658.4583,S,10737.8228,E,1,07,1.2,598.5,M,3.0,M,,0000*75
$GPGLL,0658.4583,S,10737.8228,E,162334.000,A*2B
$GPGSA,A,3,02,26,17,09,05,15,04,,,,,,2.4,1.2,2.1*38
$GPRMC,162334.000,A,0658.4583,S,10737.8228,E,0.00,,150613,,*02
$GPVTG,,T,,M,0.00,N,0.0,K*7E
$GPGGA,162335.000,0658.4583,S,10737.8228,E,1,07,1.2,598.5,M,3.0,M,,0000*74
$GPGLL,0658.4583,S,10737.8228,E,162335.000,A*2A
$GPGSA,A,3,02,26,17,09,05,15,04,,,,,,2.4,1.2,2.1*38
$GPGSV,3,1,12,26,64,156,38,05,41,335,42,17,39,114,32,12,34,287,29*7F
$GPGSV,3,2,12,15,33,207,38,09,22,131,26,02,17,007,30,04,13,041,23*7D
$GPGSV,3,3,12,23,12,047,,10,10,021,,28,05,147,,25,04,306,*73
$GPRMC,162335.000,A,0658.4583,S,10737.8228,E,0.00,,150613,,*03
$GPVTG,,T,,M,0.00,N,0.0,K*7E
$GPGGA,162336.000,0658.4583,S,10737.8228,E,1,07,1.2,598.5,M,3.0,M,,0000*77
$GPGLL,0658.4583,S,10737.8228,E,162336.000,A*29
$GPGSA,A,3,02,26,17,09,05,15,04,,,,,,2.4,1.2,2.1*38
$GPRMC,162336.000,A,0658.4583,S,10737.8228,E,0.00,,150613,,*00
$GPVTG,,T,,M,0.00,N,0.0,K*7E
$GPGGA,162337.000,0658.4583,S,10737.8228,E,1,07,1.2,598.5,M,3.0,M,,0000*76
$GPGLL,0658.4583,S,10737.8228,E,162337.000,A*28
$GPGSA,A,3,02,26,17,09,05,15,04,,,,,,2.4,1.2,2.1*38
$GPRMC,162337.000,A,0658.4583,S,10737.8228,E,0.00,,150613,,*01
$GPVTG,,T,,M,0.00,N,0.0,K*7E
$GPGGA,162338.000,0658.4583,S,10737.8228,E,1,07,1.2,598.5,M,3.0,M,,0000*79
$GPGLL,0658.4583,S,10737.8228,E,162338.000,A*27
$GPGSA,A,3,02,26,17,09,05,15,04,,,,,,2.4,1.2,2.1*38
$GPRMC,162338.000,A,0658.4583,S,10737.8228,E,0.00,,150613,,*0E
$GPVTG,,T,,M,0.00,N,0.0,K*7E
$GPGGA,162339.000,0658.4583,S,10737.8228,E,1,07,1.2,598.5,M,3.0,M,,0000*78
$GPGLL,0658.4583,S,10737.8228,E,162339.000,A*26
$GPGSA,A,3,02,26,17,09,05,15,04,,,,,,2.4,1.2,2.1*38
$GPRMC,162339.000,A,0658.4583,S,10737.8228,E,0.00,,150613,,*0F
$GPVTG,,T,,M,0.00,N,0.0,K*7E
$GPGGA,162340.000,0658.4583,S,10737.8228,E,1,07,1.2,598.5,M,3.0,M,,0000*76
$GPGLL,0658.4583,S,10737.8228,E,162340.000,A*28
$GPGSA,A,3,02,26,17,09,05,15,04,,,,,,2.4,1.2,2.2*3B
$GPGSV,3,1,12,26,64,156,38,05,41,335,36,17,39,114,32,12,34,287,33*77
$GPGSV,3,2,12,15,33,207,39,09,22,131,24,02,17,007,30,04,13,041,23*7E
$GPGSV,3,3,12,23,12,047,,10,10,021,,28,05,147,,25,04,306,*73
$GPRMC,162340.000,A,0658.4583,S,10737.8228,E,0.00,,150613,,*01
$GPVTG,,T,,M,0.00,N,0.0,K*7E
$GPGGA,162341.000,0658.4583,S,10737.8228,E,1,07,1.2,598.5,M,3.0,M,,0000*77
$GPGLL,0658.4583,S,10737.8228,E,162341.000,A*29
$GPGSA,A,3,26,17,09,05,15,10,04,,,,,,2.4,1.2,2.1*3B
$GPRMC,162341.000,A,0658.4583,S,10737.8228,E,0.00,,150613,,*00
$GPVTG,,T,,M,0.00,N,0.0,K*7E
$GPGGA,162342.000,0658.4583,S,10737.8228,E,1,07,1.3,598.5,M,3.0,M,,0000*75
$GPGLL,0658.4583,S,10737.8228,E,162342.000,A*2A
$GPGSA,A,3,02,26,09,05,15,10,04,,,,,,2.6,1.3,2.2*3F
$GPRMC,162342.000,A,0658.4583,S,10737.8228,E,0.00,,150613,,*03
$GPVTG,,T,,M,0.00,N,0.0,K*7E
$GPGGA,162343.000,0658.4583,S,10737.8228,E,1,08,1.2,598.5,M,3.0,M,,0000*7A
$GPGLL,0658.4583,S,10737.8228,E,162343.000,A*2B
$GPGSA,A,3,02,26,17,09,05,15,10,04,,,,,2.3,1.2,2.0*3F
$GPRMC,162343.000,A,0658.4583,S,10737.8228,E,0.00,,150613,,*02
$GPVTG,,T,,M,0.00,N,0.0,K*7E
$GPGGA,162344.000,0658.4583,S,10737.8228,E,1,08,1.2,598.5,M,3.0,M,,0000*7D
$GPGLL,0658.4583,S,10737.8228,E,162344.000,A*2C
$GPGSA,A,3,02,26,17,09,05,15,10,04,,,,,2.3,1.2,2.0*3F
$GPRMC,162344.000,A,0658.4583,S,10737.8228,E,0.00,,150613,,*05
$GPVTG,,T,,M,0.00,N,0.0,K*7E
$GPGGA,162345.000,0658.4583,S,10737.8228,E,1,08,1.2,598.5,M,3.0,M,,0000*7C
$GPGLL,0658.4583,S,10737.8228,E,162345.000,A*2D
$GPGSA,A,3,02,26,17,09,05,15,10,04,,,,,2.3,1.2,2.0*3F
$GPGSV,3,1,12,26,64,156,38,05,41,335,35,17,39,114,29,12,34,287,29*75
$GPGSV,3,2,12,15,33,207,31,09,22,131,26,02,17,007,32,04,13,041,24*71
$GPGSV,3,3,12,23,12,047,,10,10,021,19,28,05,147,,25,04,306,*7B
$GPRMC,162345.000,A,0658.4583,S,10737.8228,E,0.00,,150613,,*04
$GPVTG,,T,,M,0.00,N,0.0,K*7E
$GPGGA,162346.000,0658.4583,S,10737.8228,E,1,08,1.2,598.5,M,3.0,M,,0000*7F
$GPGLL,0658.4583,S,10737.8228,E,162346.000,A*2E
$GPGSA,A,3,02,26,17,09,05,15,10,04,,,,,2.3,1.2,2.0*3F
$GPRMC,162346.000,A,0658.4583,S,10737.8228,E,0.00,,150613,,*07
$GPVTG,,T,,M,0.00,N,0.0,K*7E
$GPGGA,162347.000,0658.4583,S,10737.8228,E,1,08,1.2,598.5,M,3.0,M,,0000*7E
$GPGLL,0658.4583,S,10737.8228,E,162347.000,A*2F
$GPGSA,A,3,02,26,17,09,05,15,10,04,,,,,2.3,1.2,2.0*3F
$GPRMC,162347.000,A,0658.4583,S,10737.8228,E,0.00,,150613,,*06
$GPVTG,,T,,M,0.00,N,0.0,K*7E
$GPGGA,162348.000,0658.4583,S,10737.8228,E,1,08,1.2,598.5,M,3.0,M,,0000*71
$GPGLL,0658.4583,S,10737.8228,E,162348.000,A*20
$GPGSA,A,3,02,26,17,09,05,15,10,04,,,,,2.3,1.2,2.0*3F
$GPRMC,162348.000,A,0658.4583,S,10737.8228,E,0.00,,150613,,*09
$GPVTG,,T,,M,0.00,N,0.0,K*7E
$GPGGA,162349.000,0658.4583,S,10737.8228,E,1,06,1.3,598.5,M,3.0,M,,0000*7F
$GPGLL,0658.4583,S,10737.8228,E,162349.000,A*21
$GPGSA,A,3,02,26,17,09,15,04,,,,,,,2.7,1.3,2.3*3D
$GPRMC,162349.000,A,0658.4583,S,10737.8228,E,0.00,,150613,,*08
$GPVTG,,T,,M,0.00,N,0.0,K*7E
$GPGGA,162350.000,0658.4583,S,10737.8228,E,1,07,1.2,598.5,M,3.0,M,,0000*77
