,,,,,,,,,,*1E
$GPRMC,211512.693,V,,,,,,,170613,,*25
$GPVTG,,T,$GPGGA,211817.000,0658.6333,S,10737.8038,E,1,04,1.7,700.0,M,3.0,M,,0000*74
$GPGLL,0658.6333,S,10737.8038,E,211817.000,A*2A
$GPGSA,A,3,24,25,29,14,,,,,,,,,6.1,1.7,5.9*30
$GPRMC,211817.000,A,0658.6333,S,10737.8038,E,0.00,,170613,,*01
$GPVTG,,T,,M,0.00,N,0.0,K*7E
$GPGGA,211818.000,0658.6333,S,10737.8038,E,1,04,1.7,700.0,M,3.0,M,,0000*7B
$GPGLL,0658.6333,S,10737.8038,E,211818.000,A*25
$GPGSA,A,3,24,25,29,14,,,,,,,,,6.1,1.7,5.9*30
$GPGSV,3,1,12,15,70,015,,02,70,117,,21,49,337,24,24,45,035,26*77
$GPGSV,3,2,12,29,44,208,32,26,36,312,,30,34,178,,25,34,169,29*75
$GPGSV,3,3,12,06,34,172,,12,30,124,,14,24,271,29,16,22,109,*7B
$GPRMC,211818.000,A,0658.6333,S,10737.8038,E,0.00,,170613,,*0E
$GPVTG,,T,,M,0.00,N,0.0,K*7E
$GPGGA,211819.000,0658.6333,S,10737.8038,E,1,04,1.7,700.0,M,3.0,M,,0000*7A
$GPGLL,0658.6333,S,10737.8038,E,211819.000,A*24
$GPGSA,A,3,24,25,29,14,,,,,,,,,6.1,1.7,5.9*30
$GPRMC,211819.000,A,0658.6333,S,10737.8038,E,0.00,,170613,,*0F
$GPVTG,,T,,M,0.00,N,0.0,K*7E
$GPGGA,211820.000,0658.6333,S,10737.8038,E,1,04,1.7,700.0,M,3.0,M,,0000*70
$GPGLL,0658.6333,S,10737.8038,E,211820.000,A*2E
$GPGSA,A,3,24,25,29,14,,,,,,,,,6.1,1.7,5.9*30
$GPRMC,211820.000,A,0658.6333,S,10737.8038,E,0.00,,170613,,*05
$GPVTG,,T,,M,0.00,N,0.0,K*7E
$GPGGA,211821.000,0658.6333,S,10737.8038,E,1,04,1.7,700.0,M,3.0,M,,0000*71
$GPGLL,0658.6333,S,10737.8038,E,211821.000,A*2F
$GPGSA,A,3,24,25,29,14,,,,,,,,,6.1,1.7,5.9*30
$GPRMC,211821.000,A,0658.6333,S,10737.8038,E,0.00,,170613,,*04
$GPVTG,,T,,M,0.00,N,0.0,K*7E
$GPGGA,211822.000,0658.6333,S,10737.8038,E,1,04,1.7,700.0,M,3.0,M,,0000*72
$GPGLL,0658.6333,S,10737.8038,E,211822.000,A*2C
$GPGSA,A,3,24,25,29,14,,,,,,,,,6.1,1.7,5.9*30
$GPRMC,211822.000,A,0658.6333,S,10737.8038,E,0.00,,170613,,*07
$GPVTG,,T,,M,0.00,N,0.0,K*7E
$GPGGA,211823.000,0658.6333,S,10737.8038,E,1,04,1.7,700.0,M,3.0,M,,0000*73
$GPGLL,0658.6333,S,10737.8038,E,211823.000,A*2D
$GPGSA,A,3,24,25,29,14,,,,,,,,,6.1,1.7,5.9*30
$GPGSV,3,1,12,15,70,015,,02,70,117,,21,49,337,25,24,45,035,25*75
$GPGSV,3,2,12,29,44,208,31,26,36,312,,30,34,178,,25,34,169,28*77
$GPGSV,3,3,12,06,34,172,,12,30,124,,14,24,271,27,16,22,109,*75
$GPRMC,211823.000,A,0658.6333,S,10737.8038,E,0.00,,170613,,*06
$GPVTG,,T,,M,0.00,N,0.0,K*7E
$GPGGA,211824.000,0658.6333,S,10737.8038,E,1,04,1.7,700.0,M,3.0,M,,0000*74
$GPGLL,0658.6333,S,10737.8038,E,211824.000,A*2A
$GPGSA,A,3,24,25,29,14,,,,,,,,,6.1,1.7,5.9*30
$GPRMC,211824.000,A,0658.6333,S,10737.8038,E,0.00,,170613,,*01
$GPVTG,,T,,M,0.00,N,0.0,K*7E
$GPGGA,211825.000,0658.6333,S,10737.8038,E,1,04,1.7,700.0,M,3.0,M,,0000*75
$GPGLL,0658.6333,S,10737.8038,E,211825.000,A*2B
$GPGSA,A,3,24,25,29,14,,,,,,,,,6.1,1.7,5.9*30
$GPRMC,211825.000,A,0658.6333,S,10737.8038,E,0.00,,170613,,*00
$GPVTG,,T,,M,0.00,N,0.0,K*7E
$GPGGA,211826.000,0658.6333,S,10737.8038,E,1,04,1.7,700.0,M,3.0,M,,0000*76
$GPGLL,0658.6333,S,10737.8038,E,211826.000,A*28
$GPGSA,A,3,24,25,29,14,,,,,,,,,6.1,1.7,5.9*30
$GPRMC,211826.000,A,0658.6333,S,10737.8038,E,0.00,,170613,,*03
$GPVTG,,T,,M,0.00,N,0.0,K*7E
$GPGGA,211827.000,0658.6333,S,10737.8038,E,1,04,1.7,700.0,M,3.0,M,,0000*77
$GPGLL,0658.6333,S,10737.8038,E,211827.000,A*29
$GPGSA,A,3,24,25,29,14,,,,,,,,,6.1,1.7,5.9*30
$GPRMC,211827.000,A,0658.6333,S,10737.8038,E,0.00,,170613,,*02
$GPVTG,,T,,M,0.00,N,0.0,K*7E
$GPGGA,211828.000,0658.6333,S,10737.8038,E,1,04,1.7,700.0,M,3.0,M,,0000*78
$GPGLL,0658.6333,S,10737.8038,E,211828.000,A*26
$GPGSA,A,3,24,25,29,14,,,,,,,,,6.1,1.7,5.9*30
$GPGSV,3,1,12,15,70,015,,02,70,117,,21,49,337,24,24,45,035,26*77
$GPGSV,3,2,12,29,44,208,27,26,36,312,,30,34,178,,25,34,169,28*70
$GPGSV,3,3,12,06,34,172,,12,30,124,,14,24,271,27,16,22,109,*75
$GPRMC,211828.000,A,0658.6333,S,10737.8038,E,0.00,,170613,,*0D
$GPVTG,,T,,M,0.00,N,0.0,K*7E
$GPGGA,211829.000,0658.6333,S,10737.8038,E,1,04,1.7,700.0,M,3.0,M,,0000*79
$GPGLL,0658.6333,S,10737.8038,E,211829.000,A*27
$GPGSA,A,3,24,25,29,14,,,,,,,,,6.1,1.7,5.9*30
$GPRMC,211829.000,A,0658.6333,S,10737.8038,E,0.00,,170613,,*0C
$GPVTG,,T,,M,0.00,N,0.0,K*7E
$GPGGA,211830.000,0658.6333,S,10737.8038,E,1,04,1.7,700.0,M,3.0,M,,0000*71
$GPGLL,0658.6333,S,10737.8038,E,211830.000,A*2F
$GPGSA,A,3,24,25,29,14,,,,,,,,,6.1,1.7,5.9*30
$GPRMC,211830.000,A,0658.6333,S,10737.8038,E,0.00,,170613,,*04
$GPVTG,,T,,M,0.00,N,0.0,K*7E
$GPGGA,211831.000,0658.6333,S,10737.8038,E,1,04,1.7,700.0,M,3.0,M,,0000*70
$GPGLL,0658.6333,S,10737.8038,E,211831.000,A*2E
$GPGSA,A,3,24,25,29,14,,,,,,,,,6.1,1.7,5.9*30
$GPRMC,211831.000,A,0658.6333,S,10737.8038,E,0.00,,170613,,*05
$GPVTG,,T,,M,0.00,N,0.0,K*7E
$GPGGA,211832.000,0658.6333,S,10737.8038,E,1,04,1.7,700.0,M,3.0,M,,0000*73
$GPGLL,0658.6333,S,10737.8038,E,211832.000,A*2D
$GPGSA,A,3,24,25,29,14,,,,,,,,,6.1,1.7,5.9*30
$GPRMC,211832.000,A,0658.6333,S,10737.8038,E,0.00,,170613,,*06
$GPVTG,,T,,M,0.00,N,0.0,K*7E
$GPGGA,211833.000,0658.6333,S,10737.8038,E,1,04,1.7,700.0,M,3.0,M,,0000*72
$GPGLL,0658.6333,S,10737.8038,E,211833.000,A*2C
$GPGSA,A,3,24,25,29,14,,,,,,,,,6.2,1.7,5.9*33
$GPGSV,3,1,12,15,70,015,,02,70,117,,21,49,337,29,24,45,035,32*7F
$GPGSV,3,2,12,29,44,208,29,26,36,312,,30,34,178,,25,34,169,27*71
$GPGSV,3,3,12,06,34,172,,12,30,124,,14,24,271,27,16,22,109,*75
$GPRMC,211833.000,A,0658.6333,S,10737.8038,E,0.00,,170613,,*07
$GPVTG,,T,,M,0.00,N,0.0,K*7E
$GPGGA,211834.000,0658.6333,S,10737.8038,E,1,04,1.7,700.0,M,3.0,M,,0000*75
$GPGLL,0658.6333,S,10737.8038,E,211834.000,A*2B
$GPGSA,A,3,24,25,29,14,,,,,,,,,6.2,1.7,5.9*33
$GPRMC,211834.000,A,0658.6333,S,10737.8038,E,0.00,,170613,,*00
$GPVTG,,T,,M,0.00,N,0.0,K*7E
$GPGGA,211835.000,0658.6333,S,10737.8038,E,1,03,8.1,700.0,M,3.0,M,,0000*7C
$GPGLL,0658.6333,S,10737.8038,E,211835.000,A*2A
$GPGSA,A,2,25,29,14,,,,,,,,,,8.2,8.1,1.0*38
$GPRMC,211835.000,A,0658.6333,S,10737.8038,E,0.00,,170613,,*01
$GPVTG,,T,,M,0.00,N,0.0,K*7E
$GPGGA,211836.000,0658.6333,S,10737.8038,E,1,04,1.7,700.0,M,3.0,M,,0000*77
$GPGLL,0658.6333,S,10737.8038,E,211836.000,A*29
$GPGSA,A,3,24,25,29,14,,,,,,,,,6.2,1.7,5.9*33
$GPRMC,211836.000,A,0658.6333,S,10737.8038,E,0.00,,170613,,*02
$GPVTG,,T,,M,0.00,N,0.0,K*7E
$GPGGA,211837.000,0658.6333,S,10737.8038,E,1,04,1.7,700.0,M,3.0,M,,0000*76
$GPGLL,0658.6333,S,10737.8038,E,211837.000,A*28
$GPGSA,A,3,24,25,29,14,,,,,,,,,6.2,1.7,5.9*33
$GPRMC,211837.000,A,0658.6333,S,10737.8038,E,0.00,,170613,,*03
$GPVTG,,T,,M,0.00,N,0.0,K*7E
$GPGGA,211838.000,0658.6333,S,10737.8038,E,1,04,1.7,700.0,M,3.0,M,,0000*79
$GPGLL,0658.6333,S,10737.8038,E,211838.000,A*27
$GPGSA,A,3,24,25,29,14,,,,,,,,,6.2,1.7,5.9*33
$GPGSV,3,1,12,15,71,015,,02,69,118,,21,49,337,20,24,45,034,22*70
$GPGSV,3,2,12,29,44,208,29,26,36,312,,30,35,177,,25,34,169,23*7B
$GPGSV,3,3,12,06,34,171,,12,30,124,,14,24,271,26,16,22,109,*77
$GPRMC,211838.000,A,0658.6333,S,10737.8038,E,0.00,,170613,,*0C
$GPVTG,,T,,M,0.00,N,0.0,K*7E
$GPGGA,211839.000,0658.6333,S,10737.8038,E,1,04,1.7,700.0,M,3.0,M,,0000*78
$GPGLL,0658.6333,S,10737.8038,E,211839.000,A*26
$GPGSA,A,3,24,25,29,14,,,,,,,,,6.2,1.7,5.9*33
$GPRMC,211839.000,A,0658.6333,S,10737.8038,E,0.00,,170613,,*0D
$GPVTG,,T,,M,0.00,N,0.0,K*7E
$GPGGA,211840.000,0658.6333,S,10737.8038,E,1,04,1.7,700.0,M,3.0,M,,0000*76
$GPGLL,0658.6333,S,10737.8038,E,211840.000,A*28
$GPGSA,A,3,24,25,29,14,,,,,,,,,6.2,1.7,5.9*33
$GPRMC,211840.000,A,0658.6333,S,10737.8038,E,0.00,,170613,,*03
$GPVTG,,T,,M,0.00,N,0.0,K*7E
$GPGGA,211841.000,0658.6333,S,10737.8038,E,1,04,1.7,700.0,M,3.0,M,,0000*77
$GPGLL,0658.6333,S,10737.8038,E,211841.000,A*29
$GPGSA,A,3,24,25,29,14,,,,,,,,,6.2,1.7,5.9*33
$GPRMC,211841.000,A,0658.6333,S,10737.8038,E,0.00,,170613,,*02
$GPVTG,,T,,M,0.00,N,0.0,K*7E
$GPGGA,211842.000,0658.6333,S,10737.8038,E,1,04,1.7,700.0,M,3.0,M,,0000*74
$GPGLL,0658.6333,S,10737.8038,E,211842.000,A*2A
$GPGSA,A,3,24,25,29,14,,,,,,,,,6.2,1.7,5.9*33
$GPRMC,211842.000,A,0658.6333,S,10737.8038,E,0.00,,170613,,*01
$GPVTG,,T,,M,0.00,N,0.0,K*7E
$GPGGA,211843.000,0658.6333,S,10737.8038,E,1,04,1.7,700.0,M,3.0,M,,0000*75
$GPGLL,0658.6333,S,10737.8038,E,211843.000,A*2B
$GPGSA,A,3,24,25,29,14,,,,,,,,,6.2,1.7,5.9*33
$GPGSV,3,1,12,15,71,015,,02,69,118,,21,49,337,27,24,45,034,30*74
$GPGSV,3,2,12,29,44,208,34,26,36,312,,30,35,177,,25,34,169,31*74
$GPGSV,3,3,12,06,34,171,,12,30,124,31,14,24,271,29,16,22,109,*7A
$GPRMC,211843.000,A,0658.6333,S,10737.8038,E,0.00,,170613,,*00
$GPVTG,,T,,M,0.00,N,0.0,K*7E
$GPGGA,211844.000,0658.6333,S,10737.8038,E,1,04,1.7,700.0,M,3.0,M,,0000*72
$GPGLL,0658.6333,S,10737.8038,E,211844.000,A*2C
$GPGSA,A,3,24,25,29,14,,,,,,,,,6.2,1.7,5.9*33
$GPRMC,211844.000,A,0658.6333,S,10737.8038,E,0.00,,170613,,*07
$GPVTG,,T,,M,0.00,N,0.0,K*7E
$GPGGA,211845.000,0658.6333,S,10737.8038,E,1,04,1.7,700.0,M,3.0,M,,0000*73
$GPGLL,0658.6333,S,10737.8038,E,211845.000,A*2D
$GPGSA,A,3,24,25,29,14,,,,,,,,,6.2,1.7,5.9*33
$GPRMC,211845.000,A,0658.6333,S,10737.8038,E,0.00,,170613,,*06
$GPVTG,,T,,M,0.00,N,0.0,K*7E
$GPGGA,211846.000,0658.6333,S,10737.8038,E,1,04,1.7,700.0,M,3.0,M,,0000*70
$GPGLL,0658.6333,S,10737.8038,E,211846.000,A*2E
$GPGSA,A,3,24,25,29,14,,,,,,,,,6.2,1.7,5.9*33
$GPRMC,211846.000,A,0658.6333,S,10737.8038,E,0.00,,170613,,*05
$GPVTG,,T,,M,0.00,N,0.0,K*7E
$GPGGA,211847.000,0658.6333,S,10737.8038,E,1,04,1.7,700.0,M,3.0,M,,0000*71
$GPGLL,0658.6333,S,10737.8038,E,211847.000,A*2F
$GPGSA,A,3,24,25,29,14,,,,,,,,,6.2,1.7,5.9*33
$GPRMC,211847.000,A,0658.6333,S,10737.8038,E,0.00,,170613,,*04
$GPVTG,,T,,M,0.00,N,0.0,K*7E
$GPGGA,211848.000,0658.6333,S,10737.8038,E,1,04,1.7,700.0,M,3.0,M,,0000*7E
$GPGLL,0658.6333,S,10737.8038,E,211848.000,A*20
$GPGSA,A,3,24,25,29,14,,,,,,,,,6.2,1.7,5.9*33
$GPGSV,3,1,12,15,71,015,,02,69,118,,21,49,337,27,24,45,034,30*74
$GPGSV,3,2,12,29,44,208,33,26,36,312,,30,35,